{"type":"FeatureCollection","features":[{"type":"Feature","properties":{"CommunityPartner":"Washington Elementary","Address":"","Legislative District Number":9,"Number of projects":0,"Income":56003,"County":"Douglas","Mission Area":"Educational Support","CommunityType":"K-12","Campus Partner":[],"Academic Year":[],"Website":"washington.ops.org"},"geometry":{"type":"Point","coordinates":[-95.9991098,41.2502913]}},{"type":"Feature","properties":{"CommunityPartner":"WELLCOM","Address":"","Legislative District Number":9,"Number of projects":2,"Income":56003,"County":"Douglas","Mission Area":"Health and Wellness","CommunityType":"Nonprofit","Campus Partner":["Barbara Weitz Community Engagement Center (CEC)","Service Learning Academy (SLA)"],"Academic Year":["2016-17"],"Website":null},"geometry":{"type":"Point","coordinates":[-96.0107121,41.2581216]}},{"type":"Feature","properties":{"CommunityPartner":"Wells Fargo Foundation-Nebraska Region","Address":"","Legislative District Number":6,"Number of projects":0,"Income":56003,"County":"Douglas","Mission Area":"Educational Support","CommunityType":"Nonprofit","Campus Partner":[],"Academic Year":[],"Website":"https:\/\/www.wellsfargo.com\/about\/corporate-responsibility\/environment\/"},"geometry":{"type":"Point","coordinates":[-96.0693505,41.2610851]}},{"type":"Feature","properties":{"CommunityPartner":"Western Carolina University","Address":"","Legislative District Number":"","Number of projects":1,"Income":40278,"County":"Jackson","Mission Area":"Educational Support","CommunityType":"Higher Education Institution","Campus Partner":["Social Media Lab"],"Academic Year":["2016-17"],"Website":"https:\/\/www.wcu.edu\/"},"geometry":{"type":"Point","coordinates":[-83.1845641,35.3093963]}},{"type":"Feature","properties":{"CommunityPartner":"Westside Boys and Girls Club","Address":"","Legislative District Number":6,"Number of projects":1,"Income":56003,"County":"Douglas","Mission Area":"Educational Support","CommunityType":"K-12","Campus Partner":["Psychology, Department of"],"Academic Year":["2016-17"],"Website":"https:\/\/bgcomaha.org\/"},"geometry":{"type":"Point","coordinates":[-96.0385142,41.2723118]}},{"type":"Feature","properties":{"CommunityPartner":"Westside School District","Address":"","Legislative District Number":6,"Number of projects":1,"Income":56003,"County":"Douglas","Mission Area":"Educational Support","CommunityType":"Nonprofit","Campus Partner":["Psychology, Department of"],"Academic Year":["2017-18"],"Website":"westside66.org"},"geometry":{"type":"Point","coordinates":[-96.0309733,41.250171]}},{"type":"Feature","properties":{"CommunityPartner":"WhyArts? Inc.","Address":"","Legislative District Number":6,"Number of projects":4,"Income":56003,"County":"Douglas","Mission Area":"Educational Support","CommunityType":"Nonprofit","Campus Partner":["Office of Civic and Social Responsibility (CSR)"],"Academic Year":["2016-17","2017-18"],"Website":"http:\/\/www.whyartsinc.org\/"},"geometry":{"type":"Point","coordinates":[-96.0878265,41.2506179]}},{"type":"Feature","properties":{"CommunityPartner":"Wichita State University (WSU) Environmental Finance Center","Address":"","Legislative District Number":"","Number of projects":0,"Income":51157,"County":"Sedgwick","Mission Area":"Economic Sufficiency","CommunityType":"Higher Education Institution","Campus Partner":[],"Academic Year":[],"Website":"http:\/\/www.wichita.edu\/thisis\/home\/?u=EFC"},"geometry":{"type":"Point","coordinates":[-97.2944825,37.7179558]}},{"type":"Feature","properties":{"CommunityPartner":"Women's Center for Advancement (WCA)","Address":"","Legislative District Number":9,"Number of projects":1,"Income":56003,"County":"Douglas","Mission Area":"Social Justice","CommunityType":"Nonprofit","Campus Partner":["Service Learning Academy (SLA)"],"Academic Year":["2016-17"],"Website":"wcaomaha.org"},"geometry":{"type":"Point","coordinates":[-95.9551111,41.2581658]}},{"type":"Feature","properties":{"CommunityPartner":"Womens Fund of Greater Omaha","Address":"","Legislative District Number":11,"Number of projects":1,"Income":56003,"County":"Douglas","Mission Area":"Educational Support","CommunityType":"Nonprofit","Campus Partner":["Philosophy and Religious Studies, Department of"],"Academic Year":["2016-17"],"Website":"http:\/\/www.omahawomensfund.org\/"},"geometry":{"type":"Point","coordinates":[-95.9326328,41.2723048]}},{"type":"Feature","properties":{"CommunityPartner":"Wragge's Adaptive Swimming Lessons","Address":"","Legislative District Number":31,"Number of projects":0,"Income":56003,"County":"Douglas","Mission Area":"Health and Wellness","CommunityType":"Nonprofit","Campus Partner":[],"Academic Year":[],"Website":"www.mpsomaha.org"},"geometry":{"type":"Point","coordinates":[-96.1406444,41.2062398]}},{"type":"Feature","properties":{"CommunityPartner":"Yates Community Center","Address":"","Legislative District Number":9,"Number of projects":0,"Income":56003,"County":"Douglas","Mission Area":"International Service","CommunityType":"Nonprofit","Campus Partner":[],"Academic Year":[],"Website":null},"geometry":{"type":"Point","coordinates":[-95.9605821,41.2621358]}},{"type":"Feature","properties":{"CommunityPartner":"Yates Educational Community Partnership (ECP), Omaha Public Schools","Address":"","Legislative District Number":9,"Number of projects":0,"Income":56003,"County":"Douglas","Mission Area":"Educational Support","CommunityType":"K-12","Campus Partner":[],"Academic Year":[],"Website":"https:\/\/district.ops.org\/DEPARTMENTS\/CurriculumandInstructionSupport\/ESL\/ESLPrograms\/YatesCommunityCenter.aspx"},"geometry":{"type":"Point","coordinates":[-95.9605821,41.2621358]}},{"type":"Feature","properties":{"CommunityPartner":"YMCA Association","Address":"","Legislative District Number":8,"Number of projects":1,"Income":56003,"County":"Douglas","Mission Area":"Health and Wellness","CommunityType":"Nonprofit","Campus Partner":["Volunteer Program Assessment-UNO (VPA-UNO)"],"Academic Year":["2016-17"],"Website":null},"geometry":{"type":"Point","coordinates":[-96.0292944,41.2855734]}},{"type":"Feature","properties":{"CommunityPartner":"YMCA: Ames","Address":"","Legislative District Number":11,"Number of projects":1,"Income":56003,"County":"Douglas","Mission Area":"Health and Wellness","CommunityType":"Nonprofit","Campus Partner":["Theta Chi"],"Academic Year":["2017-18"],"Website":null},"geometry":{"type":"Point","coordinates":[-95.9653478,41.299059]}},{"type":"Feature","properties":{"CommunityPartner":"Youth Emergency Services (YES)","Address":"","Legislative District Number":7,"Number of projects":4,"Income":56003,"County":"Douglas","Mission Area":"Social Justice","CommunityType":"Nonprofit","Campus Partner":["Office of Civic and Social Responsibility (CSR)"],"Academic Year":["2017-18","2016-17"],"Website":"http:\/\/www.yesomaha.org\/"},"geometry":{"type":"Point","coordinates":[-95.9519528,41.2573912]}}]}