{"type":"FeatureCollection","features":[{"type":"Feature","properties":{"CommunityPartner":"75 North","Address":"2112 North 30th Street Omaha NE","Legislative District Number":11,"Number of projects":5,"Income":56003,"County":"Douglas","Mission Area":"Economic Sufficiency","CommunityType":"Nonprofit","Campus Partner":["Aerospace Studies Department"],"Academic Year":["2016-17","2017-18"],"Website":"http:\/\/www.seventyfivenorth.org\/about-75-north\/"},"geometry":{"type":"Point","coordinates":[-95.9574278,41.2789997]}},{"type":"Feature","properties":{"CommunityPartner":"A Time to Heal (ATTH)","Address":"6400 South, University Drive Road North Omaha NE","Legislative District Number":9,"Number of projects":5,"Income":56003,"County":"Douglas","Mission Area":"Health and Wellness","CommunityType":"Nonprofit","Campus Partner":["Anthropology"],"Academic Year":["2016-17","2017-18"],"Website":"http:\/\/atimetohealfoundation.org\/"},"geometry":{"type":"Point","coordinates":[-96.0107658,41.2578876]}},{"type":"Feature","properties":{"CommunityPartner":"AARP","Address":"1941 S 42nd St Omaha NE","Legislative District Number":9,"Number of projects":5,"Income":56003,"County":"Douglas","Mission Area":"Health and Wellness","CommunityType":"Nonprofit","Campus Partner":["Anthropology"],"Academic Year":["2016-17","2017-18"],"Website":"http:\/\/local.aarp.org\/omahane"},"geometry":{"type":"Point","coordinates":[-95.9751614,41.2406269]}},{"type":"Feature","properties":{"CommunityPartner":"Abide Network","Address":"3223 N 45th St Omaha NE","Legislative District Number":11,"Number of projects":10,"Income":56003,"County":"Douglas","Mission Area":"Economic Sufficiency","CommunityType":"Nonprofit","Campus Partner":["Art and Art History, Department of","Ancient Mediterranean Studies"],"Academic Year":["2017-18","2016-17"],"Website":"http:\/\/www.abideomaha.org"},"geometry":{"type":"Point","coordinates":[-95.9805769,41.287989]}},{"type":"Feature","properties":{"CommunityPartner":"Aksarben Senior Center","Address":"1330 S 70th st Omaha NE","Legislative District Number":9,"Number of projects":0,"Income":56003,"County":"Douglas","Mission Area":"Health and Wellness","CommunityType":"Nonprofit","Campus Partner":"","Academic Year":"","Website":"http:\/\/aksarbenseniorliving.com"},"geometry":{"type":"Point","coordinates":[-96.0210058,41.2524191]}},{"type":"Feature","properties":{"CommunityPartner":"Aksarben-Elmwood Neighborhood Association","Address":"1500 S 60th Street Omaha NE","Legislative District Number":9,"Number of projects":0,"Income":56003,"County":"Douglas","Mission Area":"Social Justice","CommunityType":"Nonprofit","Campus Partner":"","Academic Year":"","Website":"https:\/\/aepna.org\/"},"geometry":{"type":"Point","coordinates":[-96.0047507,41.2453568]}},{"type":"Feature","properties":{"CommunityPartner":"Alliance for a Better Omaha","Address":"10525 J St. Omaha NE","Legislative District Number":12,"Number of projects":0,"Income":56003,"County":"Douglas","Mission Area":"Economic Sufficiency","CommunityType":"Nonprofit","Campus Partner":"","Academic Year":"","Website":"http:\/\/togetheromaha.org"},"geometry":{"type":"Point","coordinates":[-96.0780051,41.2137282]}},{"type":"Feature","properties":{"CommunityPartner":"Alzheimer's Association, Nebraska Chapter","Address":"11711 Arbor St #110 Omaha NE","Legislative District Number":20,"Number of projects":0,"Income":56003,"County":"Douglas","Mission Area":"Health and Wellness","CommunityType":"Nonprofit","Campus Partner":"","Academic Year":"","Website":"https:\/\/www.alz.org\/nebraska\/"},"geometry":{"type":"Point","coordinates":[-96.096377,41.235583]}},{"type":"Feature","properties":{"CommunityPartner":"American Cancer Society: Hope Lodge","Address":"8030 Farnam Drive Omaha NE","Legislative District Number":6,"Number of projects":0,"Income":56003,"County":"Douglas","Mission Area":"Health and Wellness","CommunityType":"Nonprofit","Campus Partner":"","Academic Year":"","Website":"https:\/\/www.cancer.org\/treatment\/support-programs-and-services\/patient-lodging\/hope-lodge\/omaha.html"},"geometry":{"type":"Point","coordinates":[-96.0386796,41.25917]}},{"type":"Feature","properties":{"CommunityPartner":"American Legion 373","Address":"7380 Q Street Ralston NE","Legislative District Number":12,"Number of projects":0,"Income":56003,"County":"Douglas","Mission Area":"Health and Wellness","CommunityType":"Nonprofit","Campus Partner":"","Academic Year":"","Website":"https:\/\/centennial.legion.org\/nebraska\/post373"},"geometry":{"type":"Point","coordinates":[-96.0267688,41.2058612]}},{"type":"Feature","properties":{"CommunityPartner":"American Lung Association in Nebraska","Address":"11225 Davenport Street #101 Omaha NE","Legislative District Number":6,"Number of projects":0,"Income":56003,"County":"Douglas","Mission Area":"Health and Wellness","CommunityType":"Nonprofit","Campus Partner":"","Academic Year":"","Website":"https:\/\/www.lung.org\/about-us\/local-associations\/nebraska.html"},"geometry":{"type":"Point","coordinates":[-96.0873385,41.2604741]}},{"type":"Feature","properties":{"CommunityPartner":"American Red Cross","Address":"2912 S 80th Ave Omaha NE","Legislative District Number":20,"Number of projects":0,"Income":56003,"County":"Douglas","Mission Area":"Health and Wellness","CommunityType":"Nonprofit","Campus Partner":"","Academic Year":"","Website":"https:\/\/www.redcross.org\/donate\/hurricanes-2018-donations.html\/?cid=fy19hur2018&med=cpc&source=google&scode=rsg00000e017&gclid=EAIaIQobChMIicyY__XH3gIVkcDACh3GrglaEAAYASAAEgK-bPD_BwE&gclsrc=aw.ds"},"geometry":{"type":"Point","coordinates":[-96.0393604,41.232345]}},{"type":"Feature","properties":{"CommunityPartner":"Apostle Nursing Home Health Care","Address":"14511 Borman St Omaha NE","Legislative District Number":49,"Number of projects":0,"Income":72269,"County":"Sarpy","Mission Area":"Health and Wellness","CommunityType":"Nonprofit","Campus Partner":"","Academic Year":"","Website":"http:\/\/www.spenddownnebraska.com\/"},"geometry":{"type":"Point","coordinates":[-96.1411214,41.1880613]}},{"type":"Feature","properties":{"CommunityPartner":"Arts for All","Address":"4411 S 24th St Omaha NE","Legislative District Number":7,"Number of projects":0,"Income":56003,"County":"Douglas","Mission Area":"Educational Support","CommunityType":"Nonprofit","Campus Partner":"","Academic Year":"","Website":"http:\/\/www.artsforallomaha.org"},"geometry":{"type":"Point","coordinates":[-95.9466055,41.215742]}},{"type":"Feature","properties":{"CommunityPartner":"Autism Society of NE","Address":"9012 Q St. Omaha NE","Legislative District Number":12,"Number of projects":0,"Income":56003,"County":"Douglas","Mission Area":"Health and Wellness","CommunityType":"Nonprofit","Campus Partner":"","Academic Year":"","Website":"http:\/\/autismcenterfornebraska.org"},"geometry":{"type":"Point","coordinates":[-96.0534321,41.2063067]}},{"type":"Feature","properties":{"CommunityPartner":"Avenue Scholars Foundation","Address":"7101 Mercy Rd Ste 240 Omaha NE","Legislative District Number":9,"Number of projects":0,"Income":56003,"County":"Douglas","Mission Area":"Educational Support","CommunityType":"Nonprofit","Campus Partner":"","Academic Year":"","Website":"http:\/\/www.avescholars.org\/"},"geometry":{"type":"Point","coordinates":[-96.0218413,41.2372233]}}]}