{"type":"FeatureCollection","features":[{"type":"Feature","properties":{"CommunityPartner":"Abide Network","Address":"","Projects":[],"College Name":[],"Mission Type":"Primary","Project Name":"","Legislative District Number":11,"Number of projects":0,"Income":56003,"City":"Omaha","County":"Douglas","Mission Area":"Economic Sufficiency","CommunityType":"Nonprofit","Campus Partner":[],"Academic Year":[],"Website":"http:\/\/www.abideomaha.org"},"geometry":{"type":"Point","coordinates":[-95.9805769,41.287989]}},{"type":"Feature","properties":{"CommunityPartner":"Alliance for a Better Omaha","Address":"","Projects":[],"College Name":[],"Mission Type":"Primary","Project Name":"","Legislative District Number":12,"Number of projects":0,"Income":56003,"City":"Omaha","County":"Douglas","Mission Area":"International Service","CommunityType":"Nonprofit","Campus Partner":[],"Academic Year":[],"Website":"http:\/\/togetheromaha.org"},"geometry":{"type":"Point","coordinates":[-96.0780051,41.2137282]}},{"type":"Feature","properties":{"CommunityPartner":"75 North","Address":"","Projects":["omaha: 2016-17 (15)"],"College Name":["College of Arts and Sciences"],"Mission Type":"Primary","Project Name":"","Legislative District Number":11,"Number of projects":1,"Income":56003,"City":"Omaha","County":"Douglas","Mission Area":"Educational Support","CommunityType":"Nonprofit","Campus Partner":["Chemistry, Department of"],"Academic Year":["2016-17"],"Website":"http:\/\/www.seventyfivenorth.org\/about-75-north\/"},"geometry":{"type":"Point","coordinates":[-95.956756,41.279006]}},{"type":"Feature","properties":{"CommunityPartner":"Heartland Workers Center","Address":"","Projects":[],"College Name":[],"Mission Type":"Primary","Project Name":"","Legislative District Number":7,"Number of projects":0,"Income":56003,"City":"Omaha","County":"Douglas","Mission Area":"Economic Sufficiency","CommunityType":"Nonprofit","Campus Partner":[],"Academic Year":[],"Website":"http:\/\/heartlandworkercenter.org"},"geometry":{"type":"Point","coordinates":[-95.9470584,41.2294217]}},{"type":"Feature","properties":{"CommunityPartner":"Computer Science","Address":"1110 S 67th St omaha NE","Legislative District Number":9,"Number of projects":"","Income":56003,"County":"Douglas","Mission Area":"Social Justice","CommunityType":"Nonprofit","Campus Partner":[],"Website":"https:\/\/hellolo.com"},"geometry":{"type":"Point","coordinates":[-96.0167667,41.2471396]}},{"type":"Feature","properties":{"CommunityPartner":"bbcgcgjc","Address":"1314 N, 112th  plz Omaha NE","Legislative District Number":6,"Number of projects":"","Income":56003,"County":"Douglas","Mission Area":"Educational Support","CommunityType":"Nonprofit","Campus Partner":[],"Website":"https:\/\/pooja.erddug.com"},"geometry":{"type":"Point","coordinates":[-96.0866274,41.2714536]}}]}