{"type":"FeatureCollection","features":[{"type":"Feature","properties":{"CommunityPartner":"Minh Duong 1","Address":"210 South 16 Street Omaha Nebraska","Website":"http:\/\/google.com","Legislative District Number":7,"Income":56003,"County":"Douglas","Mission Area":"Health and Wellness","CommunityType":"Higher Education Institution","Campus Partner":""},"geometry":{"type":"Point","coordinates":[-95.9375448,41.2583758]}},{"type":"Feature","properties":{"CommunityPartner":"Abide Network","Address":"3223 N 45th St Omaha Nebraska","Website":"http:\/\/www.abideomaha.org","Legislative District Number":11,"Income":56003,"County":"Douglas","Mission Area":"Economic Sufficiency","CommunityType":"Nonprofit","Campus Partner":["Ancient Mediterranean Studies","Art and Art History, Department of"]},"geometry":{"type":"Point","coordinates":[-95.9805769,41.287989]}},{"type":"Feature","properties":{"CommunityPartner":"75 North","Address":"2112 North 30th Street Omaha NE","Website":"http:\/\/www.seventyfivenorth.org\/about-75-north\/","Legislative District Number":11,"Income":56003,"County":"Douglas","Mission Area":"Economic Sufficiency","CommunityType":"Nonprofit","Campus Partner":["Aerospace Studies Department"]},"geometry":{"type":"Point","coordinates":[-95.9568972,41.2789358]}},{"type":"Feature","properties":{"CommunityPartner":"Bard College","Address":"30 Campus Rd Annandale-On-Hudson NY","Website":"http:\/\/www.bard.edu\/","Legislative District Number":0,"Income":72706,"County":"Dutchess","Mission Area":"Educational Support","CommunityType":"Higher Education Institution","Campus Partner":""},"geometry":{"type":"Point","coordinates":[-73.916647,42.0208225]}},{"type":"Feature","properties":{"CommunityPartner":"Bennington Elementary School","Address":"11620 N 156th St Bennington NE","Website":"http:\/\/www.benningtonschools.org","Legislative District Number":10,"Income":56003,"County":"Douglas","Mission Area":"Educational Support","CommunityType":"K-12","Campus Partner":""},"geometry":{"type":"Point","coordinates":[-96.1594097,41.3655143]}},{"type":"Feature","properties":{"CommunityPartner":"Beveridge Magnet Middle School","Address":"1616 S 120th St Omaha NE","Website":"http:\/\/beveridge.ops.org","Legislative District Number":20,"Income":56003,"County":"Douglas","Mission Area":"Educational Support","CommunityType":"K-12","Campus Partner":""},"geometry":{"type":"Point","coordinates":[-96.1023882,41.242597]}},{"type":"Feature","properties":{"CommunityPartner":"City of Omaha","Address":"1819 Farnam Street Omaha NE","Website":"https:\/\/www.cityofomaha.org\/","Legislative District Number":7,"Income":56003,"County":"Douglas","Mission Area":"Economic Sufficiency","CommunityType":"Government Agency","Campus Partner":""},"geometry":{"type":"Point","coordinates":[-95.9403931,41.2570498]}},{"type":"Feature","properties":{"CommunityPartner":"Claremont School of Theology","Address":"1325 N College Ave Claremont CA","Website":"https:\/\/cst.edu\/","Legislative District Number":0,"Income":57952,"County":"Los Angeles","Mission Area":"Educational Support","CommunityType":"Higher Education Institution","Campus Partner":""},"geometry":{"type":"Point","coordinates":[-117.716307,34.1077059]}},{"type":"Feature","properties":{"CommunityPartner":"Common Sense Media: Omaha Public Schools","Address":"650 Townsend Suite 435 San Francisco CA","Website":"https:\/\/commonsensemedia.org","Legislative District Number":0,"Income":87701,"County":"San Francisco","Mission Area":"Educational Support","CommunityType":"K-12","Campus Partner":""},"geometry":{"type":"Point","coordinates":[-122.4033069,37.7710325]}},{"type":"Feature","properties":{"CommunityPartner":"Douglas County Department of Health & Human Services","Address":"1111 S 41st St Omaha NE","Website":"http:\/\/dhhs.ne.gov","Legislative District Number":9,"Income":56003,"County":"Douglas","Mission Area":"","CommunityType":"","Campus Partner":""},"geometry":{"type":"Point","coordinates":[-95.9739069,41.2484543]}},{"type":"Feature","properties":{"CommunityPartner":"Douglas County Health Department","Address":"1101 S 42nd St N\/A N\/A","Website":"https:\/\/www.douglascountyhealth.com\/","Legislative District Number":0,"Income":47090,"County":"Pinellas","Mission Area":"","CommunityType":"","Campus Partner":""},"geometry":{"type":"Point","coordinates":[-82.6901723,27.7829586]}},{"type":"Feature","properties":{"CommunityPartner":"Target Omaha","Address":"7200 Dodge St Omaha Nebraska","Website":"http:\/\/www.whitehouse.com","Legislative District Number":6,"Income":56003,"County":"Douglas","Mission Area":"International Service","CommunityType":"Business","Campus Partner":""},"geometry":{"type":"Point","coordinates":[-96.0274546,41.2613888]}},{"type":"Feature","properties":{"CommunityPartner":"Fontenelle Elementary School","Address":"3905 N 52nd St Omaha NE","Website":"http:\/\/fontenelle.ops.org","Legislative District Number":13,"Income":56003,"County":"Douglas","Mission Area":"Educational Support","CommunityType":"K-12","Campus Partner":""},"geometry":{"type":"Point","coordinates":[-95.9928709,41.293494]}},{"type":"Feature","properties":{"CommunityPartner":"Kiewit Middle School","Address":"1560 Howard St Omaha NE","Website":"http:\/\/kms.mps.org","Legislative District Number":7,"Income":56003,"County":"Douglas","Mission Area":"Educational Support","CommunityType":"K-12","Campus Partner":""},"geometry":{"type":"Point","coordinates":[-95.9369852,41.2558116]}},{"type":"Feature","properties":{"CommunityPartner":"Spirit World Omaha","Address":"6680 Center St Omaha Nebraska","Website":"http:\/\/www.whitehouse.com","Legislative District Number":9,"Income":56003,"County":"Douglas","Mission Area":"Environmental Stewardship","CommunityType":"Nonprofit","Campus Partner":""},"geometry":{"type":"Point","coordinates":[-96.0137414,41.2382328]}},{"type":"Feature","properties":{"CommunityPartner":"Malcolm X Memorial Foundation","Address":"3448 Evans St Omaha NE","Website":"http:\/\/malcolmxfoundation.org\/","Legislative District Number":11,"Income":56003,"County":"Douglas","Mission Area":"Educational Support","CommunityType":"Nonprofit","Campus Partner":""},"geometry":{"type":"Point","coordinates":[-95.9644175,41.2910928]}},{"type":"Feature","properties":{"CommunityPartner":"Marconi Institute for Creativity","Address":"Via Celestini, 1 Sasso Marconi BO Italy","Website":"http:\/\/mic.fgm.it\/","Legislative District Number":0,"Income":0,"County":"","Mission Area":"Educational Support","CommunityType":"Nonprofit","Campus Partner":""},"geometry":{"type":"Point","coordinates":[11.2675705,44.4313976]}},{"type":"Feature","properties":{"CommunityPartner":"Marquis Place Assisted Living","Address":"20800 West Maple Road Elkhorn NE","Website":"https:\/\/www.capitalsenior.com\/marquisplaceofelkhorn\/","Legislative District Number":39,"Income":56003,"County":"Douglas","Mission Area":"","CommunityType":"","Campus Partner":""},"geometry":{"type":"Point","coordinates":[-96.2421163,41.2923176]}},{"type":"Feature","properties":{"CommunityPartner":"Monson & Holloway Law Office","Address":"108 Oak St Laurel NE","Website":"http:\/\/www.monsonholloway.com","Legislative District Number":40,"Income":54391,"County":"Cedar","Mission Area":"Social Justice","CommunityType":"Business","Campus Partner":""},"geometry":{"type":"Point","coordinates":[-97.0899975,42.4302367]}},{"type":"Feature","properties":{"CommunityPartner":"Nebraska Interfaith Power & Lights","Address":"2012 S. 13th St. Lincoln NE","Website":"https:\/\/www.nebraskaipl.org\/","Legislative District Number":27,"Income":53730,"County":"Lancaster","Mission Area":"Educational Support","CommunityType":"Government Agency","Campus Partner":""},"geometry":{"type":"Point","coordinates":[-96.7024618,40.792332]}},{"type":"Feature","properties":{"CommunityPartner":"A Time to Heal (ATTH)","Address":"6400 South, University Drive Road North Omaha Nebraska","Website":"http:\/\/atimetohealfoundation.org\/","Legislative District Number":9,"Income":56003,"County":"Douglas","Mission Area":"Health and Wellness","CommunityType":"Nonprofit","Campus Partner":["Anthropology"]},"geometry":{"type":"Point","coordinates":[-96.0107658,41.2578876]}},{"type":"Feature","properties":{"CommunityPartner":"AARP","Address":"1941 S 42nd St Omaha Nebraska","Website":"http:\/\/local.aarp.org\/omahane","Legislative District Number":9,"Income":56003,"County":"Douglas","Mission Area":"Health and Wellness","CommunityType":"Nonprofit","Campus Partner":["Anthropology"]},"geometry":{"type":"Point","coordinates":[-95.9751614,41.2406269]}},{"type":"Feature","properties":{"CommunityPartner":"Verdis Group","Address":"950 S. 10th St. #010 Omaha NE","Website":"http:\/\/verdisgroup.com\/","Legislative District Number":7,"Income":56003,"County":"Douglas","Mission Area":"","CommunityType":"","Campus Partner":""},"geometry":{"type":"Point","coordinates":[-95.9301127,41.2503917]}},{"type":"Feature","properties":{"CommunityPartner":"Wichita State University (WSU) Environmental Finance Center","Address":"1845 Fairmount Street Wichita KS","Website":"http:\/\/www.wichita.edu\/thisis\/home\/?u=EFC","Legislative District Number":0,"Income":51157,"County":"Sedgwick","Mission Area":"","CommunityType":"","Campus Partner":""},"geometry":{"type":"Point","coordinates":[-97.2944825,37.7179558]}}]}