{"type":"FeatureCollection","features":[{"type":"Feature","properties":{"CommunityPartner":"75 North","Address":"","Legislative District Number":11,"Number of projects":1,"Income":56003,"County":"Douglas","Mission Area":"Economic Sufficiency","CommunityType":"Nonprofit","Campus Partner":["Service Learning Academy (SLA)"],"Academic Year":["2016-17"],"Website":"http:\/\/www.seventyfivenorth.org\/about-75-north\/"},"geometry":{"type":"Point","coordinates":[-95.9574278,41.2789997]}},{"type":"Feature","properties":{"CommunityPartner":"A Time to Heal (ATTH)","Address":"","Legislative District Number":9,"Number of projects":2,"Income":56003,"County":"Douglas","Mission Area":"Health and Wellness","CommunityType":"Nonprofit","Campus Partner":["Office of Civic and Social Responsibility (CSR)","Service Learning Academy (SLA)"],"Academic Year":["2016-17"],"Website":"http:\/\/atimetohealfoundation.org\/"},"geometry":{"type":"Point","coordinates":[-96.0107658,41.2578876]}},{"type":"Feature","properties":{"CommunityPartner":"AARP","Address":"","Legislative District Number":9,"Number of projects":0,"Income":56003,"County":"Douglas","Mission Area":"Health and Wellness","CommunityType":"Nonprofit","Campus Partner":[],"Academic Year":[],"Website":"local.aarp.org\/omahane"},"geometry":{"type":"Point","coordinates":[-95.9751614,41.2406269]}},{"type":"Feature","properties":{"CommunityPartner":"Abide Network","Address":"","Legislative District Number":11,"Number of projects":2,"Income":56003,"County":"Douglas","Mission Area":"Economic Sufficiency","CommunityType":"Nonprofit","Campus Partner":["Office of Civic and Social Responsibility (CSR)"],"Academic Year":["2016-17"],"Website":"www.abideomaha.org"},"geometry":{"type":"Point","coordinates":[-95.9805769,41.287989]}},{"type":"Feature","properties":{"CommunityPartner":"Aksarben Senior Center","Address":"","Legislative District Number":9,"Number of projects":0,"Income":56003,"County":"Douglas","Mission Area":"Health and Wellness","CommunityType":"Nonprofit","Campus Partner":[],"Academic Year":[],"Website":"aksarbenseniorliving.com"},"geometry":{"type":"Point","coordinates":[-96.0210058,41.2524191]}},{"type":"Feature","properties":{"CommunityPartner":"Aksarben-Elmwood Neighborhood Association","Address":"","Legislative District Number":9,"Number of projects":1,"Income":56003,"County":"Douglas","Mission Area":"Social Justice","CommunityType":"Nonprofit","Campus Partner":["Office of Civic and Social Responsibility (CSR)"],"Academic Year":["2017-18"],"Website":"https:\/\/aepna.org\/"},"geometry":{"type":"Point","coordinates":[-96.0047507,41.2453568]}},{"type":"Feature","properties":{"CommunityPartner":"Alliance for a Better Omaha","Address":"","Legislative District Number":12,"Number of projects":1,"Income":56003,"County":"Douglas","Mission Area":"Economic Sufficiency","CommunityType":"Nonprofit","Campus Partner":["Service Learning Academy (SLA)"],"Academic Year":["2016-17"],"Website":"togetheromaha.org"},"geometry":{"type":"Point","coordinates":[-96.0780051,41.2137282]}},{"type":"Feature","properties":{"CommunityPartner":"Alzheimer's Association, Nebraska Chapter","Address":"","Legislative District Number":20,"Number of projects":1,"Income":56003,"County":"Douglas","Mission Area":"Health and Wellness","CommunityType":"Nonprofit","Campus Partner":["Gerontology, Department of"],"Academic Year":["2016-17"],"Website":"https:\/\/www.alz.org\/nebraska\/"},"geometry":{"type":"Point","coordinates":[-96.096377,41.235583]}},{"type":"Feature","properties":{"CommunityPartner":"American Cancer Society: Hope Lodge","Address":"","Legislative District Number":6,"Number of projects":1,"Income":56003,"County":"Douglas","Mission Area":"Health and Wellness","CommunityType":"Nonprofit","Campus Partner":["Office of Civic and Social Responsibility (CSR)"],"Academic Year":["2017-18"],"Website":"https:\/\/www.cancer.org\/treatment\/support-programs-and-services\/patient-lodging\/hope-lodge\/omaha.html"},"geometry":{"type":"Point","coordinates":[-96.0386796,41.25917]}},{"type":"Feature","properties":{"CommunityPartner":"American Legion 373","Address":"","Legislative District Number":12,"Number of projects":1,"Income":56003,"County":"Douglas","Mission Area":"Health and Wellness","CommunityType":"Nonprofit","Campus Partner":["Office of Civic and Social Responsibility (CSR)"],"Academic Year":["2016-17"],"Website":"https:\/\/centennial.legion.org\/nebraska\/post373"},"geometry":{"type":"Point","coordinates":[-96.0267688,41.2058612]}},{"type":"Feature","properties":{"CommunityPartner":"American Lung Association in Nebraska","Address":"","Legislative District Number":6,"Number of projects":1,"Income":56003,"County":"Douglas","Mission Area":"Health and Wellness","CommunityType":"Nonprofit","Campus Partner":["Volunteer Program Assessment-UNO (VPA-UNO)"],"Academic Year":["2016-17"],"Website":"https:\/\/www.lung.org\/about-us\/local-associations\/nebraska.html"},"geometry":{"type":"Point","coordinates":[-96.0873385,41.2604741]}},{"type":"Feature","properties":{"CommunityPartner":"American Red Cross","Address":"","Legislative District Number":20,"Number of projects":2,"Income":56003,"County":"Douglas","Mission Area":"Health and Wellness","CommunityType":"Nonprofit","Campus Partner":["Maverick Food Pantry","Office of Civic and Social Responsibility (CSR)"],"Academic Year":["2016-17","2017-18"],"Website":"https:\/\/www.redcross.org\/donate\/disaster-donations.html\/"},"geometry":{"type":"Point","coordinates":[-96.0393604,41.232345]}},{"type":"Feature","properties":{"CommunityPartner":"Apostle Nursing Home Health Care","Address":"","Legislative District Number":49,"Number of projects":0,"Income":72269,"County":"Sarpy","Mission Area":"Health and Wellness","CommunityType":"Nonprofit","Campus Partner":[],"Academic Year":[],"Website":"http:\/\/www.spenddownnebraska.com\/"},"geometry":{"type":"Point","coordinates":[-96.1411214,41.1880613]}},{"type":"Feature","properties":{"CommunityPartner":"Arts for All","Address":"","Legislative District Number":7,"Number of projects":0,"Income":56003,"County":"Douglas","Mission Area":"Educational Support","CommunityType":"Nonprofit","Campus Partner":[],"Academic Year":[],"Website":"www.artsforallomaha.org"},"geometry":{"type":"Point","coordinates":[-95.9466055,41.215742]}},{"type":"Feature","properties":{"CommunityPartner":"Autism Society of NE","Address":"","Legislative District Number":12,"Number of projects":0,"Income":56003,"County":"Douglas","Mission Area":"Health and Wellness","CommunityType":"Nonprofit","Campus Partner":[],"Academic Year":[],"Website":"autismcenterfornebraska.org"},"geometry":{"type":"Point","coordinates":[-96.0534321,41.2063067]}},{"type":"Feature","properties":{"CommunityPartner":"Avenue Scholars Foundation","Address":"","Legislative District Number":9,"Number of projects":1,"Income":56003,"County":"Douglas","Mission Area":"Educational Support","CommunityType":"Nonprofit","Campus Partner":["Support and Training for the Evaluation of Programs (STEPs)"],"Academic Year":["2016-17"],"Website":"http:\/\/www.avescholars.org\/"},"geometry":{"type":"Point","coordinates":[-96.0218413,41.2372233]}},{"type":"Feature","properties":{"CommunityPartner":"Bard College","Address":"","Legislative District Number":"","Number of projects":1,"Income":72706,"County":"Dutchess","Mission Area":"Educational Support","CommunityType":"Higher Education Institution","Campus Partner":["Sustainability, Office of"],"Academic Year":["2016-17"],"Website":"http:\/\/www.bard.edu\/"},"geometry":{"type":"Point","coordinates":[-73.916647,42.0208225]}},{"type":"Feature","properties":{"CommunityPartner":"Bemis Center for Contemporary Arts","Address":"","Legislative District Number":7,"Number of projects":0,"Income":56003,"County":"Douglas","Mission Area":"Educational Support","CommunityType":"Nonprofit","Campus Partner":[],"Academic Year":[],"Website":"http:\/\/www.bemiscenter.org\/"},"geometry":{"type":"Point","coordinates":[-95.93232,41.2526171]}},{"type":"Feature","properties":{"CommunityPartner":"Bennington Elementary School","Address":"","Legislative District Number":10,"Number of projects":0,"Income":56003,"County":"Douglas","Mission Area":"Educational Support","CommunityType":"K-12","Campus Partner":[],"Academic Year":[],"Website":"www.benningtonschools.org"},"geometry":{"type":"Point","coordinates":[-96.1594097,41.3655143]}},{"type":"Feature","properties":{"CommunityPartner":"Benson Area Refugee Taskforce (BART)","Address":"","Legislative District Number":8,"Number of projects":0,"Income":56003,"County":"Douglas","Mission Area":"International Service","CommunityType":"Nonprofit","Campus Partner":[],"Academic Year":[],"Website":"http:\/\/www.bensonrefugeetf.com\/"},"geometry":{"type":"Point","coordinates":[-95.9982921,41.2844489]}},{"type":"Feature","properties":{"CommunityPartner":"Benson Plant Rescue","Address":"","Legislative District Number":8,"Number of projects":3,"Income":56003,"County":"Douglas","Mission Area":"Environmental Stewardship","CommunityType":"Nonprofit","Campus Partner":["Office of Civic and Social Responsibility (CSR)"],"Academic Year":["2016-17","2017-18"],"Website":"https:\/\/www.facebook.com\/BensonPlantRescue\/"},"geometry":{"type":"Point","coordinates":[-96.0249873,41.2852593]}},{"type":"Feature","properties":{"CommunityPartner":"Bergan Mercy Hospital","Address":"","Legislative District Number":20,"Number of projects":1,"Income":56003,"County":"Douglas","Mission Area":"Health and Wellness","CommunityType":"Nonprofit","Campus Partner":["Music, School of"],"Academic Year":["2016-17"],"Website":"https:\/\/www.chihealth.com\/en\/location-search\/creighton-bergan.html"},"geometry":{"type":"Point","coordinates":[-96.0307467,41.2393534]}},{"type":"Feature","properties":{"CommunityPartner":"Beveridge Magnet Middle School","Address":"","Legislative District Number":20,"Number of projects":3,"Income":56003,"County":"Douglas","Mission Area":"Educational Support","CommunityType":"K-12","Campus Partner":["Chinese Student Scholars Association","Service Learning Academy (SLA)"],"Academic Year":["2016-17","2017-18"],"Website":"beveridge.ops.org"},"geometry":{"type":"Point","coordinates":[-96.1023882,41.242597]}},{"type":"Feature","properties":{"CommunityPartner":"Blue Valley Community Action, Inc","Address":"","Legislative District Number":32,"Number of projects":1,"Income":44616,"County":"Jefferson","Mission Area":"Social Justice","CommunityType":"Nonprofit","Campus Partner":["Psychology, Department of"],"Academic Year":["2017-18"],"Website":"www.bvca.net"},"geometry":{"type":"Point","coordinates":[-97.1776183,40.135964]}},{"type":"Feature","properties":{"CommunityPartner":"Boys and Girls Club of Council Bluffs","Address":"","Legislative District Number":"","Number of projects":0,"Income":53260,"County":"Pottawattamie","Mission Area":"Educational Support","CommunityType":"Nonprofit","Campus Partner":[],"Academic Year":[],"Website":"http:\/\/bgcomaha.org\/locations\/council-bluffs\/"},"geometry":{"type":"Point","coordinates":[-95.8664211,41.2695283]}},{"type":"Feature","properties":{"CommunityPartner":"Boys and Girls Club of the Midlands","Address":"","Legislative District Number":11,"Number of projects":4,"Income":56003,"County":"Douglas","Mission Area":"Educational Support","CommunityType":"Nonprofit","Campus Partner":["Service Learning Academy (SLA)","Office of Civic and Social Responsibility (CSR)","Psychology, Department of"],"Academic Year":["2016-17","2017-18"],"Website":"http:\/\/www.bgcomaha.org\/"},"geometry":{"type":"Point","coordinates":[-95.9506217,41.2738859]}},{"type":"Feature","properties":{"CommunityPartner":"Boys Town Day School","Address":"","Legislative District Number":4,"Number of projects":0,"Income":56003,"County":"Douglas","Mission Area":"Educational Support","CommunityType":"K-12","Campus Partner":[],"Academic Year":[],"Website":null},"geometry":{"type":"Point","coordinates":[-96.1335489,41.2605699]}},{"type":"Feature","properties":{"CommunityPartner":"Brigit Saint Brigit Theatre Company (BSB)","Address":"","Legislative District Number":9,"Number of projects":0,"Income":56003,"County":"Douglas","Mission Area":"Educational Support","CommunityType":"Nonprofit","Campus Partner":[],"Academic Year":[],"Website":"https:\/\/www.bsbtheatre.com\/"},"geometry":{"type":"Point","coordinates":[-95.9656595,41.2563557]}},{"type":"Feature","properties":{"CommunityPartner":"Brownell Talbot","Address":"","Legislative District Number":8,"Number of projects":0,"Income":56003,"County":"Douglas","Mission Area":"Educational Support","CommunityType":"K-12","Campus Partner":[],"Academic Year":[],"Website":null},"geometry":{"type":"Point","coordinates":[-95.998492,41.26359]}},{"type":"Feature","properties":{"CommunityPartner":"Buford Foundation","Address":"","Legislative District Number":20,"Number of projects":0,"Income":56003,"County":"Douglas","Mission Area":"Educational Support","CommunityType":"Nonprofit","Campus Partner":[],"Academic Year":[],"Website":"https:\/\/campconfidence.org\/"},"geometry":{"type":"Point","coordinates":[-96.1225471,41.2190264]}},{"type":"Feature","properties":{"CommunityPartner":"Butte Humane Society","Address":"","Legislative District Number":"","Number of projects":1,"Income":44366,"County":"Butte","Mission Area":"Environmental Stewardship","CommunityType":"Nonprofit","Campus Partner":["Volunteer Program Assessment-UNO (VPA-UNO)"],"Academic Year":["2016-17"],"Website":null},"geometry":{"type":"Point","coordinates":[-121.8110819,39.7126278]}},{"type":"Feature","properties":{"CommunityPartner":"Calvary Omaha","Address":"","Legislative District Number":4,"Number of projects":1,"Income":56003,"County":"Douglas","Mission Area":"Educational Support","CommunityType":"Nonprofit","Campus Partner":["Volunteer Program Assessment-UNO (VPA-UNO)"],"Academic Year":["2016-17"],"Website":null},"geometry":{"type":"Point","coordinates":[-96.1402724,41.2507089]}},{"type":"Feature","properties":{"CommunityPartner":"Campus Compact for the Great Plains","Address":"","Legislative District Number":"","Number of projects":2,"Income":57439,"County":"Suffolk","Mission Area":"Educational Support","CommunityType":"Nonprofit","Campus Partner":["Office of Civic and Social Responsibility (CSR)","Lambda Theta Nu"],"Academic Year":["2017-18"],"Website":"http:\/\/greatplains.compact.org\/"},"geometry":{"type":"Point","coordinates":[-71.0619177,42.3548993]}},{"type":"Feature","properties":{"CommunityPartner":"Catholic Charities - Phoenix House","Address":"","Legislative District Number":"","Number of projects":6,"Income":53260,"County":"Pottawattamie","Mission Area":"Health and Wellness","CommunityType":"Nonprofit","Campus Partner":["Office of Civic and Social Responsibility (CSR)"],"Academic Year":["2016-17","2017-18"],"Website":null},"geometry":{"type":"Point","coordinates":[-95.8478281,41.2622041]}},{"type":"Feature","properties":{"CommunityPartner":"Chabad-Lubavitch of Nebraska Inc.","Address":"","Legislative District Number":20,"Number of projects":2,"Income":56003,"County":"Douglas","Mission Area":"Social Justice","CommunityType":"Nonprofit","Campus Partner":["Office of Civic and Social Responsibility (CSR)"],"Academic Year":["2017-18","2016-17"],"Website":null},"geometry":{"type":"Point","coordinates":[-96.1010715,41.240674]}},{"type":"Feature","properties":{"CommunityPartner":"Charles Drew Health Center","Address":"","Legislative District Number":11,"Number of projects":2,"Income":56003,"County":"Douglas","Mission Area":"Health and Wellness","CommunityType":"Nonprofit","Campus Partner":["Religious Studies, Department of","Sigma Lambda Beta"],"Academic Year":["2016-17","2017-18"],"Website":null},"geometry":{"type":"Point","coordinates":[-95.9562782,41.279539]}},{"type":"Feature","properties":{"CommunityPartner":"Childrens Scholarship Fund of Omaha","Address":"","Legislative District Number":9,"Number of projects":1,"Income":56003,"County":"Douglas","Mission Area":"Educational Support","CommunityType":"Nonprofit","Campus Partner":["Support and Training for the Evaluation of Programs (STEPs)"],"Academic Year":["2016-17"],"Website":null},"geometry":{"type":"Point","coordinates":[-96.0218413,41.2372233]}},{"type":"Feature","properties":{"CommunityPartner":"Citizen?s Climate Lobby","Address":"","Legislative District Number":"","Number of projects":0,"Income":66529,"County":"San Diego","Mission Area":"Educational Support","CommunityType":"Nonprofit","Campus Partner":[],"Academic Year":[],"Website":"https:\/\/citizensclimatelobby.org\/chapters\/NE_Omaha\/"},"geometry":{"type":"Point","coordinates":[-117.1787619,32.6826727]}},{"type":"Feature","properties":{"CommunityPartner":"City of Omaha","Address":"","Legislative District Number":7,"Number of projects":1,"Income":56003,"County":"Douglas","Mission Area":"Economic Sufficiency","CommunityType":"Government Agency","Campus Partner":["Honors Program"],"Academic Year":["2017-18"],"Website":"https:\/\/www.cityofomaha.org\/"},"geometry":{"type":"Point","coordinates":[-95.9403931,41.2570498]}},{"type":"Feature","properties":{"CommunityPartner":"City of Omaha: Mandan Park","Address":"","Legislative District Number":7,"Number of projects":0,"Income":56003,"County":"Douglas","Mission Area":"Environmental Stewardship","CommunityType":"Nonprofit","Campus Partner":[],"Academic Year":[],"Website":"http:\/\/parks.cityofomaha.org\/contact"},"geometry":{"type":"Point","coordinates":[-95.930362,41.1913174]}},{"type":"Feature","properties":{"CommunityPartner":"City Sprouts","Address":"","Legislative District Number":11,"Number of projects":2,"Income":56003,"County":"Douglas","Mission Area":"Environmental Stewardship","CommunityType":"Nonprofit","Campus Partner":["Service Learning Academy (SLA)"],"Academic Year":["2016-17"],"Website":"omahasprouts.org"},"geometry":{"type":"Point","coordinates":[-95.9729104,41.274268]}},{"type":"Feature","properties":{"CommunityPartner":"Civic Nebraska","Address":"","Legislative District Number":28,"Number of projects":3,"Income":53730,"County":"Lancaster","Mission Area":"Educational Support","CommunityType":"Nonprofit","Campus Partner":["Office of Civic and Social Responsibility (CSR)","Barbara Weitz Community Engagement Center (CEC)"],"Academic Year":["2016-17","2017-18"],"Website":"http:\/\/nereform.org\/"},"geometry":{"type":"Point","coordinates":[-96.7018693,40.8066471]}},{"type":"Feature","properties":{"CommunityPartner":"Claremont School of Theology","Address":"","Legislative District Number":"","Number of projects":0,"Income":57952,"County":"Los Angeles","Mission Area":"Educational Support","CommunityType":"Higher Education Institution","Campus Partner":[],"Academic Year":[],"Website":"https:\/\/cst.edu\/"},"geometry":{"type":"Point","coordinates":[-117.716307,34.1077059]}},{"type":"Feature","properties":{"CommunityPartner":"Clemson University","Address":"","Legislative District Number":"","Number of projects":1,"Income":43531,"County":"Pickens","Mission Area":"Educational Support","CommunityType":"Higher Education Institution","Campus Partner":["History, Department of"],"Academic Year":["2017-18"],"Website":"http:\/\/www.clemson.edu\/"},"geometry":{"type":"Point","coordinates":[-82.8367365,34.6753184]}},{"type":"Feature","properties":{"CommunityPartner":"Coalition for a Strong Nebraska","Address":"","Legislative District Number":28,"Number of projects":1,"Income":53730,"County":"Lancaster","Mission Area":"Social Justice","CommunityType":"Nonprofit","Campus Partner":["Service Learning Academy (SLA)"],"Academic Year":["2016-17"],"Website":null},"geometry":{"type":"Point","coordinates":[-96.7001142,40.8121822]}},{"type":"Feature","properties":{"CommunityPartner":"Coalition RX","Address":"","Legislative District Number":9,"Number of projects":0,"Income":56003,"County":"Douglas","Mission Area":"Health and Wellness","CommunityType":"Nonprofit","Campus Partner":[],"Academic Year":[],"Website":"http:\/\/coalitionrx.org\/"},"geometry":{"type":"Point","coordinates":[-96.0107658,41.2578876]}},{"type":"Feature","properties":{"CommunityPartner":"College of Saint Mary","Address":"","Legislative District Number":9,"Number of projects":0,"Income":56003,"County":"Douglas","Mission Area":"Educational Support","CommunityType":"Higher Education Institution","Campus Partner":[],"Academic Year":[],"Website":"http:\/\/www.csm.edu\/"},"geometry":{"type":"Point","coordinates":[-96.0220528,41.2399078]}},{"type":"Feature","properties":{"CommunityPartner":"Common Seed Soil Library, Omaha Public Library (OPL)","Address":"","Legislative District Number":7,"Number of projects":0,"Income":56003,"County":"Douglas","Mission Area":"Environmental Stewardship","CommunityType":"Nonprofit","Campus Partner":[],"Academic Year":[],"Website":"https:\/\/omahalibrary.org\/welcome-to-the-common-soil-library\/"},"geometry":{"type":"Point","coordinates":[-95.9351094,41.2581041]}},{"type":"Feature","properties":{"CommunityPartner":"Common Sense Media: Omaha Public Schools","Address":"","Legislative District Number":"","Number of projects":0,"Income":87701,"County":"San Francisco","Mission Area":"Educational Support","CommunityType":"K-12","Campus Partner":[],"Academic Year":[],"Website":"https:\/\/commonsensemedia.org"},"geometry":{"type":"Point","coordinates":[-122.4033069,37.7710325]}},{"type":"Feature","properties":{"CommunityPartner":"Community Action of Nebraska","Address":"","Legislative District Number":27,"Number of projects":1,"Income":53730,"County":"Lancaster","Mission Area":"Economic Sufficiency","CommunityType":"Nonprofit","Campus Partner":["Support and Training for the Evaluation of Programs (STEPs)"],"Academic Year":["2016-17"],"Website":null},"geometry":{"type":"Point","coordinates":[-96.7183676,40.8142864]}},{"type":"Feature","properties":{"CommunityPartner":"Community Action Partnership of Lancaster and Saunders Counties","Address":"","Legislative District Number":27,"Number of projects":1,"Income":53730,"County":"Lancaster","Mission Area":"Economic Sufficiency","CommunityType":"Nonprofit","Campus Partner":["Support and Training for the Evaluation of Programs (STEPs)"],"Academic Year":["2016-17"],"Website":null},"geometry":{"type":"Point","coordinates":[-96.7183676,40.8142864]}},{"type":"Feature","properties":{"CommunityPartner":"Community Action Partnership of Western Nebraska: Foster Grandparent Program in Gering","Address":"","Legislative District Number":48,"Number of projects":1,"Income":46632,"County":"Scotts Bluff","Mission Area":"Economic Sufficiency","CommunityType":"Nonprofit","Campus Partner":["Volunteer Program Assessment-UNO (VPA-UNO)"],"Academic Year":["2016-17"],"Website":null},"geometry":{"type":"Point","coordinates":[-103.6602409,41.8437621]}},{"type":"Feature","properties":{"CommunityPartner":"Completely Kids","Address":"","Legislative District Number":7,"Number of projects":3,"Income":56003,"County":"Douglas","Mission Area":"Educational Support","CommunityType":"Nonprofit","Campus Partner":["Office of Civic and Social Responsibility (CSR)","Service Learning Academy (SLA)","Volunteer Program Assessment-UNO (VPA-UNO)"],"Academic Year":["2016-17"],"Website":"completelykids.org"},"geometry":{"type":"Point","coordinates":[-95.9496407,41.2540701]}},{"type":"Feature","properties":{"CommunityPartner":"Court Appointed Special Advocates in Douglas County","Address":"","Legislative District Number":7,"Number of projects":2,"Income":56003,"County":"Douglas","Mission Area":"Social Justice","CommunityType":"Nonprofit","Campus Partner":["Volunteer Program Assessment-UNO (VPA-UNO)"],"Academic Year":["2016-17","2017-18"],"Website":null},"geometry":{"type":"Point","coordinates":[-95.9473042,41.2540844]}},{"type":"Feature","properties":{"CommunityPartner":"Creighton University","Address":"","Legislative District Number":11,"Number of projects":2,"Income":56003,"County":"Douglas","Mission Area":"Educational Support","CommunityType":"Higher Education Institution","Campus Partner":["Gerontology, Department of","Natan and Hannah Schwalb Center for Israel and Jewish Studies (Schwalb Center)"],"Academic Year":["2017-18","2016-17"],"Website":"https:\/\/www.creighton.edu\/trio\/"},"geometry":{"type":"Point","coordinates":[-95.9486026,41.2655878]}},{"type":"Feature","properties":{"CommunityPartner":"Cultural Enrichment Fund","Address":"","Legislative District Number":"","Number of projects":0,"Income":62640,"County":"Cumberland","Mission Area":"Educational Support","CommunityType":"Nonprofit","Campus Partner":[],"Academic Year":[],"Website":"https:\/\/culturalenrichmentfund.org\/"},"geometry":{"type":"Point","coordinates":[-76.8803158,40.2607816]}},{"type":"Feature","properties":{"CommunityPartner":"D2 Center","Address":"","Legislative District Number":9,"Number of projects":0,"Income":56003,"County":"Douglas","Mission Area":"Educational Support","CommunityType":"Nonprofit","Campus Partner":[],"Academic Year":[],"Website":"d2center.org"},"geometry":{"type":"Point","coordinates":[-95.9758577,41.2423638]}},{"type":"Feature","properties":{"CommunityPartner":"Do Space","Address":"","Legislative District Number":6,"Number of projects":1,"Income":56003,"County":"Douglas","Mission Area":"Educational Support","CommunityType":"Nonprofit","Campus Partner":["Volunteer Program Assessment-UNO (VPA-UNO)"],"Academic Year":["2017-18"],"Website":null},"geometry":{"type":"Point","coordinates":[-96.0244388,41.2589554]}},{"type":"Feature","properties":{"CommunityPartner":"DoD - Defense POW\/MIA Accounting Agency","Address":"","Legislative District Number":"","Number of projects":0,"Income":108706,"County":"Arlington","Mission Area":"Social Justice","CommunityType":"Nonprofit","Campus Partner":[],"Academic Year":[],"Website":"www.defense.gov\/Resources\/Contact-DoD\/source\/nav\/"},"geometry":{"type":"Point","coordinates":[-77.0563653,38.8718372]}},{"type":"Feature","properties":{"CommunityPartner":"Douglas County Department of Health & Human Services","Address":"","Legislative District Number":9,"Number of projects":1,"Income":56003,"County":"Douglas","Mission Area":"Health and Wellness","CommunityType":"Government Agency","Campus Partner":["Office of Civic and Social Responsibility (CSR)"],"Academic Year":["2016-17"],"Website":"dhhs.ne.gov"},"geometry":{"type":"Point","coordinates":[-95.9739069,41.2484543]}},{"type":"Feature","properties":{"CommunityPartner":"Douglas County Health Department","Address":"","Legislative District Number":9,"Number of projects":1,"Income":56003,"County":"Douglas","Mission Area":"Health and Wellness","CommunityType":"Government Agency","Campus Partner":["Office of Civic and Social Responsibility (CSR)"],"Academic Year":["2017-18"],"Website":"https:\/\/www.douglascountyhealth.com\/"},"geometry":{"type":"Point","coordinates":[-95.9752027,41.2484065]}},{"type":"Feature","properties":{"CommunityPartner":"Douglas County Historial Society","Address":"","Legislative District Number":11,"Number of projects":1,"Income":56003,"County":"Douglas","Mission Area":"Educational Support","CommunityType":"Government Agency","Campus Partner":["Office of Civic and Social Responsibility (CSR)"],"Academic Year":["2017-18"],"Website":null},"geometry":{"type":"Point","coordinates":[-95.9595608,41.3045603]}},{"type":"Feature","properties":{"CommunityPartner":"Down Syndrome Alliance of the Midlands (DSM)","Address":"","Legislative District Number":9,"Number of projects":3,"Income":56003,"County":"Douglas","Mission Area":"Health and Wellness","CommunityType":"Nonprofit","Campus Partner":["Service Learning Academy (SLA)","Student Council for Exceptional Children (SCEC)"],"Academic Year":["2016-17","2017-18"],"Website":"http:\/\/www.dsamidlands.org\/"},"geometry":{"type":"Point","coordinates":[-96.0107658,41.2578876]}},{"type":"Feature","properties":{"CommunityPartner":"Dreamweaver Foundation","Address":"","Legislative District Number":4,"Number of projects":1,"Income":56003,"County":"Douglas","Mission Area":"Health and Wellness","CommunityType":"Nonprofit","Campus Partner":["Support and Training for the Evaluation of Programs (STEPs)"],"Academic Year":["2017-18"],"Website":null},"geometry":{"type":"Point","coordinates":[-96.120819,41.2639836]}},{"type":"Feature","properties":{"CommunityPartner":"Dundee Elementary","Address":"","Legislative District Number":8,"Number of projects":1,"Income":56003,"County":"Douglas","Mission Area":"Educational Support","CommunityType":"K-12","Campus Partner":["Office of Civic and Social Responsibility (CSR)"],"Academic Year":["2017-18"],"Website":null},"geometry":{"type":"Point","coordinates":[-95.9932477,41.2618085]}},{"type":"Feature","properties":{"CommunityPartner":"Durham Museum","Address":"","Legislative District Number":7,"Number of projects":2,"Income":56003,"County":"Douglas","Mission Area":"Educational Support","CommunityType":"Nonprofit","Campus Partner":["History, Department of"],"Academic Year":["2016-17","2017-18"],"Website":"durhammuseum.org"},"geometry":{"type":"Point","coordinates":[-95.9285879,41.2514804]}},{"type":"Feature","properties":{"CommunityPartner":"Eastern Nebraska 4-H Camp","Address":"","Legislative District Number":2,"Number of projects":1,"Income":72269,"County":"Sarpy","Mission Area":"Educational Support","CommunityType":"Nonprofit","Campus Partner":["Office of Civic and Social Responsibility (CSR)"],"Academic Year":["2017-18"],"Website":null},"geometry":{"type":"Point","coordinates":[-96.2567218,41.0268073]}},{"type":"Feature","properties":{"CommunityPartner":"Eastern Nebraska Community Action Partnership","Address":"","Legislative District Number":11,"Number of projects":1,"Income":56003,"County":"Douglas","Mission Area":"Economic Sufficiency","CommunityType":"Nonprofit","Campus Partner":["Support and Training for the Evaluation of Programs (STEPs)"],"Academic Year":["2016-17"],"Website":null},"geometry":{"type":"Point","coordinates":[-95.9476176,41.301269]}},{"type":"Feature","properties":{"CommunityPartner":"Eastern Nebraska Office on Aging: Foster Grandparent Program in Omaha","Address":"","Legislative District Number":20,"Number of projects":2,"Income":56003,"County":"Douglas","Mission Area":"Economic Sufficiency","CommunityType":"Nonprofit","Campus Partner":["Volunteer Program Assessment-UNO (VPA-UNO)"],"Academic Year":["2016-17"],"Website":null},"geometry":{"type":"Point","coordinates":[-96.1186569,41.2112668]}},{"type":"Feature","properties":{"CommunityPartner":"Eastern Nebraska Office on Aging: Ombudsman Advocate Program in Omaha","Address":"","Legislative District Number":20,"Number of projects":1,"Income":56003,"County":"Douglas","Mission Area":"Economic Sufficiency","CommunityType":"Nonprofit","Campus Partner":["Volunteer Program Assessment-UNO (VPA-UNO)"],"Academic Year":["2016-17"],"Website":null},"geometry":{"type":"Point","coordinates":[-96.1186569,41.2112668]}},{"type":"Feature","properties":{"CommunityPartner":"Eastern Nebraska Office on Aging: Senior Companions Program in Omaha","Address":"","Legislative District Number":20,"Number of projects":0,"Income":56003,"County":"Douglas","Mission Area":"Economic Sufficiency","CommunityType":"Nonprofit","Campus Partner":[],"Academic Year":[],"Website":null},"geometry":{"type":"Point","coordinates":[-96.1186569,41.2112668]}},{"type":"Feature","properties":{"CommunityPartner":"Eastern Nebraska Veterans Home","Address":"","Legislative District Number":3,"Number of projects":3,"Income":72269,"County":"Sarpy","Mission Area":"Health and Wellness","CommunityType":"Nonprofit","Campus Partner":["Student Veterans Organization","Office of Civic and Social Responsibility (CSR)"],"Academic Year":["2017-18"],"Website":"https:\/\/veterans.nebraska.gov\/eastern-nebraska-veterans-home"},"geometry":{"type":"Point","coordinates":[-95.9734034,41.1245213]}},{"type":"Feature","properties":{"CommunityPartner":"El Museo Latino","Address":"","Legislative District Number":7,"Number of projects":0,"Income":56003,"County":"Douglas","Mission Area":"International Service","CommunityType":"Nonprofit","Campus Partner":[],"Academic Year":[],"Website":"www.elmuseolatino.org"},"geometry":{"type":"Point","coordinates":[-95.9480305,41.211715]}},{"type":"Feature","properties":{"CommunityPartner":"Environmental Finance Center","Address":"","Legislative District Number":"","Number of projects":0,"Income":61130,"County":"Orange","Mission Area":"Educational Support","CommunityType":"Nonprofit","Campus Partner":[],"Academic Year":[],"Website":"https:\/\/efc.sog.unc.edu\/"},"geometry":{"type":"Point","coordinates":[-79.0505178,35.9138854]}},{"type":"Feature","properties":{"CommunityPartner":"Environmental Protection Agency (EPA Region 7)","Address":"","Legislative District Number":"","Number of projects":1,"Income":78186,"County":"Johnson","Mission Area":"Environmental Stewardship","CommunityType":"Nonprofit","Campus Partner":["Sustainability, Office of"],"Academic Year":["2016-17"],"Website":"https:\/\/www.epa.gov\/aboutepa\/epa-region-7-midwest"},"geometry":{"type":"Point","coordinates":[-94.777329,38.9250721]}},{"type":"Feature","properties":{"CommunityPartner":"Film Streams","Address":"","Legislative District Number":11,"Number of projects":0,"Income":56003,"County":"Douglas","Mission Area":"Educational Support","CommunityType":"Nonprofit","Campus Partner":[],"Academic Year":[],"Website":"filmstreams.org"},"geometry":{"type":"Point","coordinates":[-95.9380495,41.266178]}},{"type":"Feature","properties":{"CommunityPartner":"First Responders Foundation","Address":"","Legislative District Number":6,"Number of projects":1,"Income":56003,"County":"Douglas","Mission Area":"Economic Sufficiency","CommunityType":"Nonprofit","Campus Partner":["Office of Civic and Social Responsibility (CSR)"],"Academic Year":["2017-18"],"Website":"https:\/\/firstrespondersomaha.org\/"},"geometry":{"type":"Point","coordinates":[-96.0615554,41.2676284]}},{"type":"Feature","properties":{"CommunityPartner":"Fontenelle Elementary School","Address":"","Legislative District Number":13,"Number of projects":0,"Income":56003,"County":"Douglas","Mission Area":"Educational Support","CommunityType":"K-12","Campus Partner":[],"Academic Year":[],"Website":"fontenelle.ops.org"},"geometry":{"type":"Point","coordinates":[-95.9928709,41.293494]}},{"type":"Feature","properties":{"CommunityPartner":"Fontenelle Forest","Address":"","Legislative District Number":45,"Number of projects":4,"Income":72269,"County":"Sarpy","Mission Area":"Environmental Stewardship","CommunityType":"Nonprofit","Campus Partner":["Office of Civic and Social Responsibility (CSR)","Service Learning Academy (SLA)","Engineering"],"Academic Year":["2016-17","2017-18"],"Website":"fontanelleforest.org"},"geometry":{"type":"Point","coordinates":[-95.9177367,41.1800797]}},{"type":"Feature","properties":{"CommunityPartner":"Food Bank for the Heartland","Address":"","Legislative District Number":12,"Number of projects":2,"Income":56003,"County":"Douglas","Mission Area":"Economic Sufficiency","CommunityType":"Nonprofit","Campus Partner":["Office of Civic and Social Responsibility (CSR)"],"Academic Year":["2016-17","2017-18"],"Website":null},"geometry":{"type":"Point","coordinates":[-96.0780051,41.2137282]}},{"type":"Feature","properties":{"CommunityPartner":"Foster Grandparents Program","Address":"","Legislative District Number":9,"Number of projects":1,"Income":56003,"County":"Douglas","Mission Area":"Economic Sufficiency","CommunityType":"Nonprofit","Campus Partner":["Psychology, Department of"],"Academic Year":["2016-17"],"Website":"enoa.org"},"geometry":{"type":"Point","coordinates":[-95.9766236,41.2412138]}},{"type":"Feature","properties":{"CommunityPartner":"Frank Stoysich Meats","Address":"","Legislative District Number":5,"Number of projects":0,"Income":56003,"County":"Douglas","Mission Area":"Health and Wellness","CommunityType":"Nonprofit","Campus Partner":[],"Academic Year":[],"Website":"frankstoysichmeats.com"},"geometry":{"type":"Point","coordinates":[-95.9957042,41.2055703]}},{"type":"Feature","properties":{"CommunityPartner":"George Washington University","Address":"","Legislative District Number":"","Number of projects":1,"Income":72935,"County":"District of Columbia","Mission Area":"Educational Support","CommunityType":"Higher Education Institution","Campus Partner":["Natan and Hannah Schwalb Center for Israel and Jewish Studies (Schwalb Center)"],"Academic Year":["2017-18"],"Website":"https:\/\/www.gwu.edu\/"},"geometry":{"type":"Point","coordinates":[-77.0476606,38.9009637]}},{"type":"Feature","properties":{"CommunityPartner":"Girl Scouts Spirit of Nebraska","Address":"","Legislative District Number":9,"Number of projects":5,"Income":56003,"County":"Douglas","Mission Area":"Educational Support","CommunityType":"Nonprofit","Campus Partner":["Office of Civic and Social Responsibility (CSR)","Service Learning Academy (SLA)","Volunteer Program Assessment-UNO (VPA-UNO)"],"Academic Year":["2016-17","2017-18"],"Website":"http:\/\/www.girlscoutsnebraska.org\/"},"geometry":{"type":"Point","coordinates":[-95.9778463,41.239197]}},{"type":"Feature","properties":{"CommunityPartner":"Girls Inc","Address":"","Legislative District Number":11,"Number of projects":4,"Income":56003,"County":"Douglas","Mission Area":"Educational Support","CommunityType":"Nonprofit","Campus Partner":["Office of Civic and Social Responsibility (CSR)","Support and Training for the Evaluation of Programs (STEPs)"],"Academic Year":["2017-18"],"Website":null},"geometry":{"type":"Point","coordinates":[-95.9800613,41.2843904]}},{"type":"Feature","properties":{"CommunityPartner":"Gotta Be Me, Inc","Address":"","Legislative District Number":9,"Number of projects":0,"Income":56003,"County":"Douglas","Mission Area":"Health and Wellness","CommunityType":"Nonprofit","Campus Partner":[],"Academic Year":[],"Website":null},"geometry":{"type":"Point","coordinates":[-95.9927184,41.24429]}},{"type":"Feature","properties":{"CommunityPartner":"Greater Birmingham Humane Society","Address":"","Legislative District Number":"","Number of projects":1,"Income":47220,"County":"Jefferson","Mission Area":"Environmental Stewardship","CommunityType":"Nonprofit","Campus Partner":["Volunteer Program Assessment-UNO (VPA-UNO)"],"Academic Year":["2016-17"],"Website":null},"geometry":{"type":"Point","coordinates":[-86.8373147,33.4429285]}},{"type":"Feature","properties":{"CommunityPartner":"Greater Omaha Attendance and Learning Services","Address":"","Legislative District Number":9,"Number of projects":1,"Income":56003,"County":"Douglas","Mission Area":"Educational Support","CommunityType":"Nonprofit","Campus Partner":["Support and Training for the Evaluation of Programs (STEPs)"],"Academic Year":["2016-17"],"Website":null},"geometry":{"type":"Point","coordinates":[-95.9604031,41.2674656]}},{"type":"Feature","properties":{"CommunityPartner":"Greater Omaha Chamber of Commerce","Address":"","Legislative District Number":7,"Number of projects":1,"Income":56003,"County":"Douglas","Mission Area":"Economic Sufficiency","CommunityType":"Nonprofit","Campus Partner":["Support and Training for the Evaluation of Programs (STEPs)"],"Academic Year":["2016-17"],"Website":null},"geometry":{"type":"Point","coordinates":[-95.9336234,41.2561477]}},{"type":"Feature","properties":{"CommunityPartner":"Green Bellevue","Address":"","Legislative District Number":3,"Number of projects":0,"Income":72269,"County":"Sarpy","Mission Area":"Environmental Stewardship","CommunityType":"Nonprofit","Campus Partner":[],"Academic Year":[],"Website":"https:\/\/sites.google.com\/a\/greenbellevue.org\/green-bellevue\/"},"geometry":{"type":"Point","coordinates":[-95.9835262,41.1878235]}},{"type":"Feature","properties":{"CommunityPartner":"Greenwood Humane Society","Address":"","Legislative District Number":"","Number of projects":1,"Income":37631,"County":"Greenwood","Mission Area":"Environmental Stewardship","CommunityType":"Nonprofit","Campus Partner":["Volunteer Program Assessment-UNO (VPA-UNO)"],"Academic Year":["2016-17"],"Website":null},"geometry":{"type":"Point","coordinates":[-82.141122,34.252724]}},{"type":"Feature","properties":{"CommunityPartner":"Grief's Journey","Address":"","Legislative District Number":6,"Number of projects":5,"Income":56003,"County":"Douglas","Mission Area":"Health and Wellness","CommunityType":"Nonprofit","Campus Partner":["Office of Civic and Social Responsibility (CSR)","Gerontology, Department of","Service Learning Academy (SLA)"],"Academic Year":["2017-18","2016-17"],"Website":"griefsjourney.org"},"geometry":{"type":"Point","coordinates":[-96.0348137,41.2572031]}},{"type":"Feature","properties":{"CommunityPartner":"Habitat for Humanity: Council Bluffs","Address":"","Legislative District Number":"","Number of projects":4,"Income":53260,"County":"Pottawattamie","Mission Area":"Economic Sufficiency","CommunityType":"Nonprofit","Campus Partner":["Fraternity & Sorority Life","Office of Civic and Social Responsibility (CSR)"],"Academic Year":["2017-18","2016-17"],"Website":null},"geometry":{"type":"Point","coordinates":[-95.852054,41.249731]}},{"type":"Feature","properties":{"CommunityPartner":"Habitat for Humanity: Omaha","Address":"","Legislative District Number":11,"Number of projects":6,"Income":56003,"County":"Douglas","Mission Area":"Economic Sufficiency","CommunityType":"Nonprofit","Campus Partner":["Office of Civic and Social Responsibility (CSR)","Women's Tennis Team","Men's Tennis Team"],"Academic Year":["2016-17","2017-18"],"Website":null},"geometry":{"type":"Point","coordinates":[-95.9431383,41.2956987]}},{"type":"Feature","properties":{"CommunityPartner":"Habitat Omaha ReStore","Address":"","Legislative District Number":11,"Number of projects":0,"Income":56003,"County":"Douglas","Mission Area":"Economic Sufficiency","CommunityType":"Nonprofit","Campus Partner":[],"Academic Year":[],"Website":"https:\/\/www.habitat.org\/"},"geometry":{"type":"Point","coordinates":[-95.9461836,41.2747423]}},{"type":"Feature","properties":{"CommunityPartner":"Harvey Oakes Elementary","Address":"","Legislative District Number":4,"Number of projects":0,"Income":56003,"County":"Douglas","Mission Area":"Educational Support","CommunityType":"Nonprofit","Campus Partner":[],"Academic Year":[],"Website":"harveyoaks.mps.org"},"geometry":{"type":"Point","coordinates":[-96.1519486,41.2405492]}},{"type":"Feature","properties":{"CommunityPartner":"Heart Ministry Center","Address":"","Legislative District Number":11,"Number of projects":3,"Income":56003,"County":"Douglas","Mission Area":"Economic Sufficiency","CommunityType":"Nonprofit","Campus Partner":["Office of Civic and Social Responsibility (CSR)"],"Academic Year":["2016-17","2017-18"],"Website":null},"geometry":{"type":"Point","coordinates":[-95.946627,41.2863273]}},{"type":"Feature","properties":{"CommunityPartner":"Heartland B-cycle","Address":"","Legislative District Number":7,"Number of projects":0,"Income":56003,"County":"Douglas","Mission Area":"Environmental Stewardship","CommunityType":"Nonprofit","Campus Partner":[],"Academic Year":[],"Website":"https:\/\/heartland.bcycle.com\/"},"geometry":{"type":"Point","coordinates":[-95.9303282,41.2542412]}},{"type":"Feature","properties":{"CommunityPartner":"Heartland Equine Therapeutic Riding Academy","Address":"","Legislative District Number":49,"Number of projects":1,"Income":72269,"County":"Sarpy","Mission Area":"Health and Wellness","CommunityType":"Nonprofit","Campus Partner":["Office of Civic and Social Responsibility (CSR)"],"Academic Year":["2017-18"],"Website":null},"geometry":{"type":"Point","coordinates":[-96.2639857,41.1600404]}},{"type":"Feature","properties":{"CommunityPartner":"Heartland Family Services","Address":"","Legislative District Number":9,"Number of projects":7,"Income":56003,"County":"Douglas","Mission Area":"Economic Sufficiency","CommunityType":"Nonprofit","Campus Partner":["Support and Training for the Evaluation of Programs (STEPs)","Office of Civic and Social Responsibility (CSR)","Service Learning Academy (SLA)","Volunteer Program Assessment-UNO (VPA-UNO)"],"Academic Year":["2016-17","2017-18"],"Website":"heartlandfamilyservices.org"},"geometry":{"type":"Point","coordinates":[-95.9754994,41.2396388]}},{"type":"Feature","properties":{"CommunityPartner":"Heartland Hope Mission","Address":"","Legislative District Number":39,"Number of projects":1,"Income":56003,"County":"Douglas","Mission Area":"Economic Sufficiency","CommunityType":"Nonprofit","Campus Partner":["Service Learning Academy (SLA)"],"Academic Year":["2016-17"],"Website":"heartlandhopemission.org"},"geometry":{"type":"Point","coordinates":[-96.212641,41.2018516]}},{"type":"Feature","properties":{"CommunityPartner":"Heartland Workers Center","Address":"","Legislative District Number":7,"Number of projects":0,"Income":56003,"County":"Douglas","Mission Area":"Social Justice","CommunityType":"Nonprofit","Campus Partner":[],"Academic Year":[],"Website":"heartlandworkercenter.org"},"geometry":{"type":"Point","coordinates":[-95.9470584,41.2294217]}},{"type":"Feature","properties":{"CommunityPartner":"Henry Doorly Zoo & Aquarium","Address":"","Legislative District Number":7,"Number of projects":2,"Income":56003,"County":"Douglas","Mission Area":"Educational Support","CommunityType":"Nonprofit","Campus Partner":["Service Learning Academy (SLA)","Office of Civic and Social Responsibility (CSR)"],"Academic Year":["2016-17","2017-18"],"Website":null},"geometry":{"type":"Point","coordinates":[-95.9272367,41.2245702]}},{"type":"Feature","properties":{"CommunityPartner":"Heron Haven","Address":"","Legislative District Number":18,"Number of projects":2,"Income":56003,"County":"Douglas","Mission Area":"Environmental Stewardship","CommunityType":"Nonprofit","Campus Partner":["Chemistry, Department of","Service Learning Academy (SLA)"],"Academic Year":["2016-17"],"Website":"heronhaven.org"},"geometry":{"type":"Point","coordinates":[-96.0970904,41.2926688]}},{"type":"Feature","properties":{"CommunityPartner":"Hope Center for Kids","Address":"","Legislative District Number":11,"Number of projects":3,"Income":56003,"County":"Douglas","Mission Area":"Educational Support","CommunityType":"Nonprofit","Campus Partner":["Office of Civic and Social Responsibility (CSR)","Support and Training for the Evaluation of Programs (STEPs)"],"Academic Year":["2016-17"],"Website":null},"geometry":{"type":"Point","coordinates":[-95.9427048,41.2796023]}},{"type":"Feature","properties":{"CommunityPartner":"Humane Society of Pinellas","Address":"","Legislative District Number":"","Number of projects":1,"Income":47090,"County":"Pinellas","Mission Area":"Environmental Stewardship","CommunityType":"Nonprofit","Campus Partner":["Volunteer Program Assessment-UNO (VPA-UNO)"],"Academic Year":["2016-17"],"Website":null},"geometry":{"type":"Point","coordinates":[-82.7112254,27.9829599]}},{"type":"Feature","properties":{"CommunityPartner":"Humane Society of the Pikes Peak Region","Address":"","Legislative District Number":"","Number of projects":0,"Income":60219,"County":"El Paso","Mission Area":"Environmental Stewardship","CommunityType":"Nonprofit","Campus Partner":[],"Academic Year":[],"Website":null},"geometry":{"type":"Point","coordinates":[-104.8369799,38.8256369]}},{"type":"Feature","properties":{"CommunityPartner":"Humane Society of the Pikes Peak Region: Pueblo Animal Services","Address":"","Legislative District Number":"","Number of projects":2,"Income":42000,"County":"Pueblo","Mission Area":"Environmental Stewardship","CommunityType":"Nonprofit","Campus Partner":["Volunteer Program Assessment-UNO (VPA-UNO)"],"Academic Year":["2016-17"],"Website":null},"geometry":{"type":"Point","coordinates":[-104.6209815,38.3191906]}},{"type":"Feature","properties":{"CommunityPartner":"Humanities Nebraska","Address":"","Legislative District Number":28,"Number of projects":0,"Income":53730,"County":"Lancaster","Mission Area":"Educational Support","CommunityType":"Nonprofit","Campus Partner":[],"Academic Year":[],"Website":"http:\/\/humanitiesnebraska.org\/"},"geometry":{"type":"Point","coordinates":[-96.7001142,40.8121822]}},{"type":"Feature","properties":{"CommunityPartner":"Hunger Collaborative","Address":"","Legislative District Number":12,"Number of projects":0,"Income":56003,"County":"Douglas","Mission Area":"Health and Wellness","CommunityType":"Nonprofit","Campus Partner":[],"Academic Year":[],"Website":"togetheromaha.org"},"geometry":{"type":"Point","coordinates":[-96.0780051,41.2137282]}},{"type":"Feature","properties":{"CommunityPartner":"Hunger Free Heartland","Address":"","Legislative District Number":20,"Number of projects":0,"Income":56003,"County":"Douglas","Mission Area":"Educational Support","CommunityType":"Nonprofit","Campus Partner":[],"Academic Year":[],"Website":"https:\/\/hungerfreeheartland.org\/"},"geometry":{"type":"Point","coordinates":[-96.1299606,41.2344851]}},{"type":"Feature","properties":{"CommunityPartner":"ICAN","Address":"","Legislative District Number":20,"Number of projects":0,"Income":56003,"County":"Douglas","Mission Area":"Educational Support","CommunityType":"Nonprofit","Campus Partner":[],"Academic Year":[],"Website":"icanglobal.net"},"geometry":{"type":"Point","coordinates":[-96.135927,41.2163256]}},{"type":"Feature","properties":{"CommunityPartner":"Imagine, A Center for Coping with Loss","Address":"","Legislative District Number":"","Number of projects":1,"Income":70476,"County":"Union","Mission Area":"Health and Wellness","CommunityType":"Nonprofit","Campus Partner":["Volunteer Program Assessment-UNO (VPA-UNO)"],"Academic Year":["2016-17"],"Website":null},"geometry":{"type":"Point","coordinates":[-74.33996,40.6859306]}},{"type":"Feature","properties":{"CommunityPartner":"Immanuel Village Senior Living","Address":"","Legislative District Number":13,"Number of projects":0,"Income":56003,"County":"Douglas","Mission Area":"Health and Wellness","CommunityType":"Nonprofit","Campus Partner":[],"Academic Year":[],"Website":"www.immanuel.com\/community\/immanuel-village"},"geometry":{"type":"Point","coordinates":[-96.015569,41.3202659]}},{"type":"Feature","properties":{"CommunityPartner":"Inclusive Communities (IC)","Address":"","Legislative District Number":9,"Number of projects":8,"Income":56003,"County":"Douglas","Mission Area":"Social Justice","CommunityType":"Nonprofit","Campus Partner":["Spirituality, Public Health, Religious Studies (SPHRS)","Barbara Weitz Community Engagement Center (CEC)","Office of Latino\/Latin American Studies (OLLAS)","Support and Training for the Evaluation of Programs (STEPs)","Service Learning Academy (SLA)"],"Academic Year":["2016-17","2017-18"],"Website":"http:\/\/www.inclusive-communities.org\/"},"geometry":{"type":"Point","coordinates":[-96.0107658,41.2578876]}},{"type":"Feature","properties":{"CommunityPartner":"inCOMMON Community Development","Address":"","Legislative District Number":5,"Number of projects":2,"Income":56003,"County":"Douglas","Mission Area":"Economic Sufficiency","CommunityType":"Nonprofit","Campus Partner":["Multicultural Greek Council","Office of Civic and Social Responsibility (CSR)"],"Academic Year":["2017-18"],"Website":null},"geometry":{"type":"Point","coordinates":[-95.9560632,41.2455192]}},{"type":"Feature","properties":{"CommunityPartner":"Institute for Holocaust Education","Address":"","Legislative District Number":6,"Number of projects":0,"Income":56003,"County":"Douglas","Mission Area":"Educational Support","CommunityType":"Nonprofit","Campus Partner":[],"Academic Year":[],"Website":"http:\/\/www.ihene.org\/"},"geometry":{"type":"Point","coordinates":[-96.1170563,41.2568308]}},{"type":"Feature","properties":{"CommunityPartner":"Institute for Public Leaders","Address":"","Legislative District Number":11,"Number of projects":0,"Income":56003,"County":"Douglas","Mission Area":"Educational Support","CommunityType":"Nonprofit","Campus Partner":[],"Academic Year":[],"Website":"iplomaha.org"},"geometry":{"type":"Point","coordinates":[-95.9684292,41.2706505]}},{"type":"Feature","properties":{"CommunityPartner":"Intercultural Senior Center","Address":"","Legislative District Number":5,"Number of projects":5,"Income":56003,"County":"Douglas","Mission Area":"International Service","CommunityType":"Nonprofit","Campus Partner":["Public Administration, School of","Service Learning Academy (SLA)","International Programs","Spanish Club"],"Academic Year":["2017-18","2016-17"],"Website":"interculturalseniorcenter.org"},"geometry":{"type":"Point","coordinates":[-95.9585457,41.2051075]}},{"type":"Feature","properties":{"CommunityPartner":"Islamic Center of Omaha","Address":"","Legislative District Number":8,"Number of projects":1,"Income":56003,"County":"Douglas","Mission Area":"International Service","CommunityType":"Nonprofit","Campus Partner":["Office of Civic and Social Responsibility (CSR)"],"Academic Year":["2016-17"],"Website":"https:\/\/www.icomaha.org\/?fbclid=IwAR1P-0sy6cG81omm-_cxK4mu4ZGNCrf58cq1LLLpt4cvlbaXUoJvE4W-nrc"},"geometry":{"type":"Point","coordinates":[-96.0258632,41.2912621]}},{"type":"Feature","properties":{"CommunityPartner":"Jacksonville Humane Society","Address":"","Legislative District Number":"","Number of projects":1,"Income":49196,"County":"Duval","Mission Area":"Environmental Stewardship","CommunityType":"Nonprofit","Campus Partner":["Volunteer Program Assessment-UNO (VPA-UNO)"],"Academic Year":["2016-17"],"Website":null},"geometry":{"type":"Point","coordinates":[-81.5717926,30.2864618]}},{"type":"Feature","properties":{"CommunityPartner":"Jewish Community Center","Address":"","Legislative District Number":6,"Number of projects":0,"Income":56003,"County":"Douglas","Mission Area":"Health and Wellness","CommunityType":"Nonprofit","Campus Partner":[],"Academic Year":[],"Website":"www.jewishomaha.org\/jcc\/"},"geometry":{"type":"Point","coordinates":[-96.1170563,41.2568308]}},{"type":"Feature","properties":{"CommunityPartner":"Josie Harper Hospice House","Address":"","Legislative District Number":20,"Number of projects":0,"Income":56003,"County":"Douglas","Mission Area":"Health and Wellness","CommunityType":"Nonprofit","Campus Partner":[],"Academic Year":[],"Website":"http:\/\/www.hospicehouseomaha.org\/Site\/Welcome.html"},"geometry":{"type":"Point","coordinates":[-96.0268553,41.240084]}},{"type":"Feature","properties":{"CommunityPartner":"Josie Harper House","Address":"","Legislative District Number":20,"Number of projects":1,"Income":56003,"County":"Douglas","Mission Area":"Health and Wellness","CommunityType":"Nonprofit","Campus Partner":["Gerontology, Department of"],"Academic Year":["2017-18"],"Website":"http:\/\/www.hospicehouseomaha.org\/Site\/Welcome.html"},"geometry":{"type":"Point","coordinates":[-96.0268553,41.240084]}},{"type":"Feature","properties":{"CommunityPartner":"Joslyn Art Museum","Address":"","Legislative District Number":7,"Number of projects":2,"Income":56003,"County":"Douglas","Mission Area":"Educational Support","CommunityType":"Nonprofit","Campus Partner":["Service Learning Academy (SLA)"],"Academic Year":["2016-17"],"Website":"joslyn.org"},"geometry":{"type":"Point","coordinates":[-95.9460901,41.2602744]}},{"type":"Feature","properties":{"CommunityPartner":"Junior Achievement of Omaha","Address":"","Legislative District Number":18,"Number of projects":0,"Income":56003,"County":"Douglas","Mission Area":"Educational Support","CommunityType":"Nonprofit","Campus Partner":[],"Academic Year":[],"Website":"juniorachievement.org"},"geometry":{"type":"Point","coordinates":[-96.1251573,41.2926634]}},{"type":"Feature","properties":{"CommunityPartner":"Justice For Our Neighbors (JFON)","Address":"","Legislative District Number":7,"Number of projects":1,"Income":56003,"County":"Douglas","Mission Area":"Social Justice","CommunityType":"Nonprofit","Campus Partner":["Philosophy and Religious Studies, Department of"],"Academic Year":["2016-17"],"Website":"http:\/\/jfon-ne.org\/"},"geometry":{"type":"Point","coordinates":[-95.9482062,41.2211754]}},{"type":"Feature","properties":{"CommunityPartner":"Kaneko","Address":"","Legislative District Number":7,"Number of projects":4,"Income":56003,"County":"Douglas","Mission Area":"Educational Support","CommunityType":"Nonprofit","Campus Partner":["Office of Civic and Social Responsibility (CSR)"],"Academic Year":["2016-17"],"Website":"thekaneko.org"},"geometry":{"type":"Point","coordinates":[-95.9309308,41.2531026]}},{"type":"Feature","properties":{"CommunityPartner":"Keep Omaha Beautiful","Address":"","Legislative District Number":7,"Number of projects":8,"Income":56003,"County":"Douglas","Mission Area":"Environmental Stewardship","CommunityType":"Nonprofit","Campus Partner":["Office of Civic and Social Responsibility (CSR)","Service Learning Academy (SLA)","OPS UNO Middle College"],"Academic Year":["2016-17","2017-18"],"Website":"keepomahabeautiful.org"},"geometry":{"type":"Point","coordinates":[-95.9403931,41.2570498]}},{"type":"Feature","properties":{"CommunityPartner":"Kids Can","Address":"","Legislative District Number":5,"Number of projects":2,"Income":56003,"County":"Douglas","Mission Area":"Educational Support","CommunityType":"Nonprofit","Campus Partner":["Service Learning Academy (SLA)"],"Academic Year":["2016-17"],"Website":"kidscanomaha.org"},"geometry":{"type":"Point","coordinates":[-95.9886074,41.2057113]}},{"type":"Feature","properties":{"CommunityPartner":"Kiewit Middle School","Address":"","Legislative District Number":7,"Number of projects":0,"Income":56003,"County":"Douglas","Mission Area":"Educational Support","CommunityType":"K-12","Campus Partner":[],"Academic Year":[],"Website":"kms.mps.org"},"geometry":{"type":"Point","coordinates":[-95.9369852,41.2558116]}},{"type":"Feature","properties":{"CommunityPartner":"La Vista Public Library","Address":"","Legislative District Number":14,"Number of projects":0,"Income":72269,"County":"Sarpy","Mission Area":"Educational Support","CommunityType":"Nonprofit","Campus Partner":[],"Academic Year":[],"Website":"cityoflavista.org\/library"},"geometry":{"type":"Point","coordinates":[-96.0542902,41.1771757]}},{"type":"Feature","properties":{"CommunityPartner":"Lauritzen Gardens","Address":"","Legislative District Number":7,"Number of projects":4,"Income":56003,"County":"Douglas","Mission Area":"Environmental Stewardship","CommunityType":"Nonprofit","Campus Partner":["Service Learning Academy (SLA)","Office of Civic and Social Responsibility (CSR)"],"Academic Year":["2016-17"],"Website":"lauritzengardens.org"},"geometry":{"type":"Point","coordinates":[-95.9166359,41.234421]}},{"type":"Feature","properties":{"CommunityPartner":"League of Women Voters","Address":"","Legislative District Number":8,"Number of projects":0,"Income":56003,"County":"Douglas","Mission Area":"Educational Support","CommunityType":"Nonprofit","Campus Partner":[],"Academic Year":[],"Website":"https:\/\/www.lwv.org\/"},"geometry":{"type":"Point","coordinates":[-95.9885078,41.2584108]}},{"type":"Feature","properties":{"CommunityPartner":"Learning Community Center of North Omaha","Address":"","Legislative District Number":11,"Number of projects":0,"Income":56003,"County":"Douglas","Mission Area":"Educational Support","CommunityType":"Nonprofit","Campus Partner":[],"Academic Year":[],"Website":"www.learningcommunityds.org"},"geometry":{"type":"Point","coordinates":[-95.9476589,41.2745002]}},{"type":"Feature","properties":{"CommunityPartner":"Learning Community Center of South Omaha","Address":"","Legislative District Number":7,"Number of projects":1,"Income":56003,"County":"Douglas","Mission Area":"Educational Support","CommunityType":"Nonprofit","Campus Partner":["Service Learning Academy (SLA)"],"Academic Year":["2016-17"],"Website":"learningcommunityds.org"},"geometry":{"type":"Point","coordinates":[-95.9458837,41.211278]}},{"type":"Feature","properties":{"CommunityPartner":"Legal Aid of Nebraska","Address":"","Legislative District Number":7,"Number of projects":2,"Income":56003,"County":"Douglas","Mission Area":"Economic Sufficiency","CommunityType":"Nonprofit","Campus Partner":["Support and Training for the Evaluation of Programs (STEPs)","Service Learning Academy (SLA)"],"Academic Year":["2016-17"],"Website":"legalaideofnebraska.org"},"geometry":{"type":"Point","coordinates":[-95.9407233,41.2582838]}},{"type":"Feature","properties":{"CommunityPartner":"Lewis and Clark Middle School","Address":"","Legislative District Number":6,"Number of projects":0,"Income":56003,"County":"Douglas","Mission Area":"Educational Support","CommunityType":"K-12","Campus Partner":[],"Academic Year":[],"Website":"lewisandclark.ops.org"},"geometry":{"type":"Point","coordinates":[-96.0199038,41.2660417]}},{"type":"Feature","properties":{"CommunityPartner":"Literacy Center of the Midlands","Address":"","Legislative District Number":6,"Number of projects":2,"Income":56003,"County":"Douglas","Mission Area":"Educational Support","CommunityType":"Nonprofit","Campus Partner":["Office of Civic and Social Responsibility (CSR)"],"Academic Year":["2017-18"],"Website":null},"geometry":{"type":"Point","coordinates":[-96.0248456,41.2566061]}},{"type":"Feature","properties":{"CommunityPartner":"Live Well Omaha","Address":"","Legislative District Number":9,"Number of projects":0,"Income":56003,"County":"Douglas","Mission Area":"Health and Wellness","CommunityType":"Nonprofit","Campus Partner":[],"Academic Year":[],"Website":"http:\/\/livewellomaha.org\/"},"geometry":{"type":"Point","coordinates":[-96.0107658,41.2578876]}},{"type":"Feature","properties":{"CommunityPartner":"Los Angeles County Department of Animal Care and Control","Address":"","Legislative District Number":"","Number of projects":1,"Income":57952,"County":"Los Angeles","Mission Area":"Environmental Stewardship","CommunityType":"Nonprofit","Campus Partner":["Volunteer Program Assessment-UNO (VPA-UNO)"],"Academic Year":["2016-17"],"Website":null},"geometry":{"type":"Point","coordinates":[-118.1681742,33.8617063]}},{"type":"Feature","properties":{"CommunityPartner":"Love's Jazz and Art Center","Address":"","Legislative District Number":11,"Number of projects":1,"Income":56003,"County":"Douglas","Mission Area":"Educational Support","CommunityType":"Nonprofit","Campus Partner":["Office of Civic and Social Responsibility (CSR)"],"Academic Year":["2016-17"],"Website":"https:\/\/www.facebook.com\/lovesjazzandartcenter"},"geometry":{"type":"Point","coordinates":[-95.9472472,41.2818874]}},{"type":"Feature","properties":{"CommunityPartner":"Lutheran Family Services","Address":"","Legislative District Number":7,"Number of projects":4,"Income":56003,"County":"Douglas","Mission Area":"Economic Sufficiency","CommunityType":"Nonprofit","Campus Partner":["Gerontology, Department of","English, Department of","Office of Civic and Social Responsibility (CSR)","Honors Program"],"Academic Year":["2016-17","2017-18"],"Website":"lfsneb.org"},"geometry":{"type":"Point","coordinates":[-95.947304,41.2589708]}},{"type":"Feature","properties":{"CommunityPartner":"MAD DADS","Address":"","Legislative District Number":"","Number of projects":0,"Income":67989,"County":"Hennepin","Mission Area":"Social Justice","CommunityType":"Nonprofit","Campus Partner":[],"Academic Year":[],"Website":"http:\/\/www.maddads.com\/"},"geometry":{"type":"Point","coordinates":[-93.2707568,44.9474772]}},{"type":"Feature","properties":{"CommunityPartner":"Malcolm X Foundation","Address":"","Legislative District Number":11,"Number of projects":0,"Income":56003,"County":"Douglas","Mission Area":"Social Justice","CommunityType":"Nonprofit","Campus Partner":[],"Academic Year":[],"Website":"malcolmxfoundation.org"},"geometry":{"type":"Point","coordinates":[-95.9644175,41.2910928]}},{"type":"Feature","properties":{"CommunityPartner":"Malcolm X Memorial Foundation","Address":"","Legislative District Number":11,"Number of projects":1,"Income":56003,"County":"Douglas","Mission Area":"Educational Support","CommunityType":"Nonprofit","Campus Partner":["Thompson Learning Community"],"Academic Year":["2016-17"],"Website":"http:\/\/malcolmxfoundation.org\/"},"geometry":{"type":"Point","coordinates":[-95.9644175,41.2910928]}},{"type":"Feature","properties":{"CommunityPartner":"Marconi Institute for Creativity","Address":"","Legislative District Number":"","Number of projects":1,"Income":"","County":"","Mission Area":"Educational Support","CommunityType":"Nonprofit","Campus Partner":["Psychology, Department of"],"Academic Year":["2017-18"],"Website":"http:\/\/mic.fgm.it\/"},"geometry":{"type":"Point","coordinates":[11.2675705,44.4313976]}},{"type":"Feature","properties":{"CommunityPartner":"Marquis Place Assisted Living","Address":"","Legislative District Number":39,"Number of projects":1,"Income":56003,"County":"Douglas","Mission Area":"Health and Wellness","CommunityType":"Nonprofit","Campus Partner":["Office of Civic and Social Responsibility (CSR)"],"Academic Year":["2016-17"],"Website":"https:\/\/www.capitalsenior.com\/marquisplaceofelkhorn\/"},"geometry":{"type":"Point","coordinates":[-96.2421163,41.2923176]}},{"type":"Feature","properties":{"CommunityPartner":"Mayor's Commission for Citizens with Disabilities (MCCD)","Address":"","Legislative District Number":7,"Number of projects":0,"Income":56003,"County":"Douglas","Mission Area":"Educational Support","CommunityType":"Nonprofit","Campus Partner":[],"Academic Year":[],"Website":"https:\/\/humanrights.cityofomaha.org\/disabilities-comm-mccd"},"geometry":{"type":"Point","coordinates":[-95.9403931,41.2570498]}},{"type":"Feature","properties":{"CommunityPartner":"McGill University","Address":"","Legislative District Number":"","Number of projects":0,"Income":"","County":"","Mission Area":"Educational Support","CommunityType":"Higher Education Institution","Campus Partner":[],"Academic Year":[],"Website":"https:\/\/www.mcgill.ca\/"},"geometry":{"type":"Point","coordinates":[-73.5776415,45.5061666]}},{"type":"Feature","properties":{"CommunityPartner":"McMillan Middle School","Address":"","Legislative District Number":13,"Number of projects":0,"Income":56003,"County":"Douglas","Mission Area":"Educational Support","CommunityType":"K-12","Campus Partner":[],"Academic Year":[],"Website":"mcmillan.ops.org"},"geometry":{"type":"Point","coordinates":[-95.9702163,41.3183174]}},{"type":"Feature","properties":{"CommunityPartner":"Mercy Housing","Address":"","Legislative District Number":20,"Number of projects":1,"Income":56003,"County":"Douglas","Mission Area":"Economic Sufficiency","CommunityType":"Nonprofit","Campus Partner":["Service Learning Academy (SLA)"],"Academic Year":["2016-17"],"Website":"mercyhousing.org"},"geometry":{"type":"Point","coordinates":[-96.025805,41.2383182]}},{"type":"Feature","properties":{"CommunityPartner":"Metro Area Continuum of Care for the Homeless (MACCH)","Address":"","Legislative District Number":9,"Number of projects":0,"Income":56003,"County":"Douglas","Mission Area":"Economic Sufficiency","CommunityType":"Nonprofit","Campus Partner":[],"Academic Year":[],"Website":"http:\/\/www.endhomelessnesstoday.org\/index.html"},"geometry":{"type":"Point","coordinates":[-96.0107658,41.2578876]}},{"type":"Feature","properties":{"CommunityPartner":"Metro Transit Omaha","Address":"","Legislative District Number":11,"Number of projects":0,"Income":56003,"County":"Douglas","Mission Area":"Environmental Stewardship","CommunityType":"Nonprofit","Campus Partner":[],"Academic Year":[],"Website":"http:\/\/www.ometro.com\/"},"geometry":{"type":"Point","coordinates":[-95.9454295,41.269065]}},{"type":"Feature","properties":{"CommunityPartner":"Metropolitan Area Planning Agency (MAPA)","Address":"","Legislative District Number":11,"Number of projects":6,"Income":56003,"County":"Douglas","Mission Area":"Environmental Stewardship","CommunityType":"Nonprofit","Campus Partner":["Office of Civic and Social Responsibility (CSR)","University Housing","Center for Public Affairs Research (CPAR)","Center for Urban Sustainability"],"Academic Year":["2016-17","2017-18"],"Website":"http:\/\/mapacog.org\/"},"geometry":{"type":"Point","coordinates":[-95.9454295,41.269065]}},{"type":"Feature","properties":{"CommunityPartner":"Midland University","Address":"","Legislative District Number":15,"Number of projects":1,"Income":49830,"County":"Dodge","Mission Area":"Educational Support","CommunityType":"Higher Education Institution","Campus Partner":["Philosophy and Religious Studies, Department of"],"Academic Year":["2016-17"],"Website":"https:\/\/www.midlandu.edu\/"},"geometry":{"type":"Point","coordinates":[-96.4897867,41.437512]}},{"type":"Feature","properties":{"CommunityPartner":"Midlands Mentoring Partnership","Address":"","Legislative District Number":8,"Number of projects":0,"Income":56003,"County":"Douglas","Mission Area":"Educational Support","CommunityType":"Nonprofit","Campus Partner":[],"Academic Year":[],"Website":"https:\/\/mmpomaha.org"},"geometry":{"type":"Point","coordinates":[-95.9885078,41.2584108]}},{"type":"Feature","properties":{"CommunityPartner":"Midlands Real Estate","Address":"","Legislative District Number":3,"Number of projects":0,"Income":72269,"County":"Sarpy","Mission Area":"Economic Sufficiency","CommunityType":"Nonprofit","Campus Partner":[],"Academic Year":[],"Website":"https:\/\/midlandsrealestate.com"},"geometry":{"type":"Point","coordinates":[-95.9668392,41.137505]}},{"type":"Feature","properties":{"CommunityPartner":"Millard Public Schools","Address":"","Legislative District Number":4,"Number of projects":0,"Income":56003,"County":"Douglas","Mission Area":"Educational Support","CommunityType":"K-12","Campus Partner":[],"Academic Year":[],"Website":"mpsomaha.org"},"geometry":{"type":"Point","coordinates":[-96.1441733,41.2896567]}},{"type":"Feature","properties":{"CommunityPartner":"Mission Zero, Interface","Address":"","Legislative District Number":"","Number of projects":0,"Income":68818,"County":"Cobb","Mission Area":"Environmental Stewardship","CommunityType":"Nonprofit","Campus Partner":[],"Academic Year":[],"Website":"http:\/\/www.interface.com\/EU\/en-GB\/about\/index\/Mission-Zero-en_GB"},"geometry":{"type":"Point","coordinates":[-84.4693563,33.8688619]}},{"type":"Feature","properties":{"CommunityPartner":"Mode Shift Omaha","Address":"","Legislative District Number":9,"Number of projects":0,"Income":56003,"County":"Douglas","Mission Area":"Environmental Stewardship","CommunityType":"Nonprofit","Campus Partner":[],"Academic Year":[],"Website":"https:\/\/modeshiftomaha.org\/"},"geometry":{"type":"Point","coordinates":[-96.0107658,41.2578876]}},{"type":"Feature","properties":{"CommunityPartner":"Monson & Holloway Law Office","Address":"","Legislative District Number":40,"Number of projects":0,"Income":54391,"County":"Cedar","Mission Area":"Social Justice","CommunityType":"Business","Campus Partner":[],"Academic Year":[],"Website":"www.monsonholloway.com"},"geometry":{"type":"Point","coordinates":[-97.0899975,42.4302367]}},{"type":"Feature","properties":{"CommunityPartner":"Morrissey Housing","Address":"","Legislative District Number":18,"Number of projects":0,"Income":56003,"County":"Douglas","Mission Area":"Environmental Stewardship","CommunityType":"Nonprofit","Campus Partner":[],"Academic Year":[],"Website":"www.morrisseyengineering.com\/contact"},"geometry":{"type":"Point","coordinates":[-96.0985174,41.3047829]}},{"type":"Feature","properties":{"CommunityPartner":"Mourning Hope Grief Center","Address":"","Legislative District Number":26,"Number of projects":1,"Income":53730,"County":"Lancaster","Mission Area":"Health and Wellness","CommunityType":"Nonprofit","Campus Partner":["Volunteer Program Assessment-UNO (VPA-UNO)"],"Academic Year":["2016-17"],"Website":null},"geometry":{"type":"Point","coordinates":[-96.6518481,40.8380618]}},{"type":"Feature","properties":{"CommunityPartner":"Mozilla Foundation","Address":"","Legislative District Number":"","Number of projects":0,"Income":101173,"County":"Santa Clara","Mission Area":"Educational Support","CommunityType":"Nonprofit","Campus Partner":[],"Academic Year":[],"Website":"https:\/\/www.mozilla.org\/en-US\/"},"geometry":{"type":"Point","coordinates":[-122.060174,37.3873074]}},{"type":"Feature","properties":{"CommunityPartner":"National Council for the Social Studies","Address":"","Legislative District Number":"","Number of projects":0,"Income":100352,"County":"Montgomery","Mission Area":"Educational Support","CommunityType":"Nonprofit","Campus Partner":[],"Academic Year":[],"Website":"https:\/\/www.socialstudies.org\/"},"geometry":{"type":"Point","coordinates":[-77.0357066,38.9961477]}},{"type":"Feature","properties":{"CommunityPartner":"Native Indian Centered Education Program (N.I.C.E.), Omaha Public Schools (OPS)","Address":"","Legislative District Number":9,"Number of projects":0,"Income":56003,"County":"Douglas","Mission Area":"Educational Support","CommunityType":"Nonprofit","Campus Partner":[],"Academic Year":[],"Website":"https:\/\/district.ops.org\/DEPARTMENTS\/CurriculumandInstructionSupport\/NativeIndianCenteredEducation\/Mission.aspx"},"geometry":{"type":"Point","coordinates":[-95.9604031,41.2674656]}},{"type":"Feature","properties":{"CommunityPartner":"Nebraska 4-H","Address":"","Legislative District Number":20,"Number of projects":1,"Income":56003,"County":"Douglas","Mission Area":"Educational Support","CommunityType":"Nonprofit","Campus Partner":["Service Learning Academy (SLA)"],"Academic Year":["2016-17"],"Website":"https:\/\/extension.unl.edu\/statewide\/douglas-sarpy\/douglas-sarpy-4-h\/"},"geometry":{"type":"Point","coordinates":[-96.0369017,41.2335744]}},{"type":"Feature","properties":{"CommunityPartner":"Nebraska AIDS Project","Address":"","Legislative District Number":6,"Number of projects":2,"Income":56003,"County":"Douglas","Mission Area":"Health and Wellness","CommunityType":"Nonprofit","Campus Partner":["Office of Civic and Social Responsibility (CSR)"],"Academic Year":["2016-17"],"Website":"hap.org"},"geometry":{"type":"Point","coordinates":[-96.033222,41.2582834]}},{"type":"Feature","properties":{"CommunityPartner":"Nebraska Appleseed","Address":"","Legislative District Number":27,"Number of projects":0,"Income":53730,"County":"Lancaster","Mission Area":"Social Justice","CommunityType":"Nonprofit","Campus Partner":[],"Academic Year":[],"Website":"https:\/\/neappleseed.org\/"},"geometry":{"type":"Point","coordinates":[-96.7090704,40.8151228]}},{"type":"Feature","properties":{"CommunityPartner":"Nebraska Civic Engagement Table","Address":"","Legislative District Number":46,"Number of projects":1,"Income":53730,"County":"Lancaster","Mission Area":"Educational Support","CommunityType":"Nonprofit","Campus Partner":["Office of Civic and Social Responsibility (CSR)"],"Academic Year":["2016-17"],"Website":"https:\/\/www.facebook.com\/nebraskatable\/"},"geometry":{"type":"Point","coordinates":[-96.7014213,40.8150799]}},{"type":"Feature","properties":{"CommunityPartner":"Nebraska Community Blood Bank","Address":"","Legislative District Number":26,"Number of projects":1,"Income":53730,"County":"Lancaster","Mission Area":"Health and Wellness","CommunityType":"Nonprofit","Campus Partner":["Office of Civic and Social Responsibility (CSR)"],"Academic Year":["2016-17"],"Website":"https:\/\/www.ncbb.org\/"},"geometry":{"type":"Point","coordinates":[-96.6054426,40.8138601]}},{"type":"Feature","properties":{"CommunityPartner":"Nebraska Correctional Youth Facility","Address":"","Legislative District Number":13,"Number of projects":0,"Income":56003,"County":"Douglas","Mission Area":"Social Justice","CommunityType":"Nonprofit","Campus Partner":[],"Academic Year":[],"Website":"corrections.nebraska.gov\/facilities\/Nebraska-correctional-youth-facility"},"geometry":{"type":"Point","coordinates":[-95.9064718,41.282255]}},{"type":"Feature","properties":{"CommunityPartner":"Nebraska Cultural Endowment","Address":"","Legislative District Number":7,"Number of projects":0,"Income":56003,"County":"Douglas","Mission Area":"Educational Support","CommunityType":"Nonprofit","Campus Partner":[],"Academic Year":[],"Website":"http:\/\/nebraskaculturalendowment.org\/"},"geometry":{"type":"Point","coordinates":[-95.9294959,41.2579241]}},{"type":"Feature","properties":{"CommunityPartner":"Nebraska Department of Health and Human Services","Address":"","Legislative District Number":28,"Number of projects":4,"Income":53730,"County":"Lancaster","Mission Area":"Social Justice","CommunityType":"Nonprofit","Campus Partner":["Support and Training for the Evaluation of Programs (STEPs)"],"Academic Year":["2017-18","2016-17"],"Website":null},"geometry":{"type":"Point","coordinates":[-96.7004067,40.810866]}},{"type":"Feature","properties":{"CommunityPartner":"Nebraska Families Collaborative","Address":"","Legislative District Number":6,"Number of projects":1,"Income":56003,"County":"Douglas","Mission Area":"Social Justice","CommunityType":"Nonprofit","Campus Partner":["Support and Training for the Evaluation of Programs (STEPs)"],"Academic Year":["2016-17"],"Website":null},"geometry":{"type":"Point","coordinates":[-96.0934898,41.2792241]}},{"type":"Feature","properties":{"CommunityPartner":"Nebraska Humane Society","Address":"","Legislative District Number":10,"Number of projects":1,"Income":56003,"County":"Douglas","Mission Area":"Environmental Stewardship","CommunityType":"Nonprofit","Campus Partner":["Psychology, Department of"],"Academic Year":["2016-17"],"Website":"http:\/\/www.nehumanesociety.org\/"},"geometry":{"type":"Point","coordinates":[-96.050668,41.30543]}},{"type":"Feature","properties":{"CommunityPartner":"Nebraska Interfaith Power & Lights","Address":"","Legislative District Number":27,"Number of projects":0,"Income":53730,"County":"Lancaster","Mission Area":"Educational Support","CommunityType":"Government Agency","Campus Partner":[],"Academic Year":[],"Website":"https:\/\/www.nebraskaipl.org\/"},"geometry":{"type":"Point","coordinates":[-96.7024618,40.792332]}},{"type":"Feature","properties":{"CommunityPartner":"Nebraska Legislature","Address":"","Legislative District Number":28,"Number of projects":0,"Income":53730,"County":"Lancaster","Mission Area":"Economic Sufficiency","CommunityType":"Nonprofit","Campus Partner":[],"Academic Year":[],"Website":"http:\/\/www.nebraskalegislature.gov\/"},"geometry":{"type":"Point","coordinates":[-96.6999471,40.8084912]}},{"type":"Feature","properties":{"CommunityPartner":"Nebraska Lutheran Outdoor Ministry","Address":"","Legislative District Number":2,"Number of projects":1,"Income":65385,"County":"Cass","Mission Area":"Educational Support","CommunityType":"Nonprofit","Campus Partner":["Office of Civic and Social Responsibility (CSR)"],"Academic Year":["2016-17"],"Website":"https:\/\/www.nlom.org\/about-us"},"geometry":{"type":"Point","coordinates":[-96.3305025,41.0351249]}},{"type":"Feature","properties":{"CommunityPartner":"Nebraska Organ Recovery","Address":"","Legislative District Number":20,"Number of projects":0,"Income":56003,"County":"Douglas","Mission Area":"Health and Wellness","CommunityType":"Nonprofit","Campus Partner":[],"Academic Year":[],"Website":"www.nedonation.org"},"geometry":{"type":"Point","coordinates":[-96.0452956,41.2348158]}},{"type":"Feature","properties":{"CommunityPartner":"Nebraska Shakespeare","Address":"","Legislative District Number":7,"Number of projects":0,"Income":56003,"County":"Douglas","Mission Area":"Educational Support","CommunityType":"Nonprofit","Campus Partner":[],"Academic Year":[],"Website":"http:\/\/www.nebraskashakespeare.com\/home"},"geometry":{"type":"Point","coordinates":[-95.9454295,41.2643742]}},{"type":"Feature","properties":{"CommunityPartner":"Nebraska Urban Indian Health Coalition","Address":"","Legislative District Number":7,"Number of projects":2,"Income":56003,"County":"Douglas","Mission Area":"International Service","CommunityType":"Nonprofit","Campus Partner":["Office of Civic and Social Responsibility (CSR)"],"Academic Year":["2017-18","2016-17"],"Website":null},"geometry":{"type":"Point","coordinates":[-95.9463378,41.2550227]}},{"type":"Feature","properties":{"CommunityPartner":"Nebraska Wildlife Federation","Address":"","Legislative District Number":29,"Number of projects":1,"Income":53730,"County":"Lancaster","Mission Area":"Environmental Stewardship","CommunityType":"Nonprofit","Campus Partner":["Center for Urban Sustainability"],"Academic Year":["2017-18"],"Website":"http:\/\/www.nebraskawildlife.org\/"},"geometry":{"type":"Point","coordinates":[-96.6569424,40.7767782]}},{"type":"Feature","properties":{"CommunityPartner":"Nebraska Writers Collective (NWC)","Address":"","Legislative District Number":13,"Number of projects":2,"Income":56003,"County":"Douglas","Mission Area":"Educational Support","CommunityType":"Nonprofit","Campus Partner":["Barbara Weitz Community Engagement Center (CEC)","Public Administration, School of"],"Academic Year":["2016-17","2017-18"],"Website":"http:\/\/newriters.org\/"},"geometry":{"type":"Point","coordinates":[-95.9718778,41.3487656]}},{"type":"Feature","properties":{"CommunityPartner":"Nebraskans for Peace","Address":"","Legislative District Number":27,"Number of projects":0,"Income":53730,"County":"Lancaster","Mission Area":"Social Justice","CommunityType":"Nonprofit","Campus Partner":[],"Academic Year":[],"Website":"http:\/\/nebraskansforpeace.org\/"},"geometry":{"type":"Point","coordinates":[-96.7073437,40.8133759]}},{"type":"Feature","properties":{"CommunityPartner":"Nebraskans for Solar","Address":"","Legislative District Number":8,"Number of projects":0,"Income":56003,"County":"Douglas","Mission Area":"Environmental Stewardship","CommunityType":"Nonprofit","Campus Partner":[],"Academic Year":[],"Website":"http:\/\/www.nebraskansforsolar.org\/"},"geometry":{"type":"Point","coordinates":[-95.9910038,41.2772363]}},{"type":"Feature","properties":{"CommunityPartner":"Neighborhood Action & Fact Association","Address":"","Legislative District Number":11,"Number of projects":2,"Income":56003,"County":"Douglas","Mission Area":"Environmental Stewardship","CommunityType":"Nonprofit","Campus Partner":["Office of Civic and Social Responsibility (CSR)","Summer Scholars"],"Academic Year":["2017-18"],"Website":null},"geometry":{"type":"Point","coordinates":[-95.949185,41.293524]}},{"type":"Feature","properties":{"CommunityPartner":"Nelson Mandela Elementary School","Address":"","Legislative District Number":11,"Number of projects":0,"Income":56003,"County":"Douglas","Mission Area":"Educational Support","CommunityType":"K-12","Campus Partner":[],"Academic Year":[],"Website":"nelsonmandelaelementary.org"},"geometry":{"type":"Point","coordinates":[-95.9576138,41.3163067]}},{"type":"Feature","properties":{"CommunityPartner":"New Visions Homeless Services","Address":"","Legislative District Number":"","Number of projects":3,"Income":53260,"County":"Pottawattamie","Mission Area":"Economic Sufficiency","CommunityType":"Nonprofit","Campus Partner":["Office of Civic and Social Responsibility (CSR)"],"Academic Year":["2017-18"],"Website":null},"geometry":{"type":"Point","coordinates":[-95.8498086,41.2462016]}},{"type":"Feature","properties":{"CommunityPartner":"No More Empty Cups","Address":"","Legislative District Number":7,"Number of projects":2,"Income":56003,"County":"Douglas","Mission Area":"Environmental Stewardship","CommunityType":"Nonprofit","Campus Partner":["Office of Civic and Social Responsibility (CSR)","OPS UNO Middle College"],"Academic Year":["2017-18","2016-17"],"Website":null},"geometry":{"type":"Point","coordinates":[-95.9297848,41.244732]}},{"type":"Feature","properties":{"CommunityPartner":"No More Empty Pots","Address":"","Legislative District Number":13,"Number of projects":7,"Income":56003,"County":"Douglas","Mission Area":"Health and Wellness","CommunityType":"Nonprofit","Campus Partner":["Office of Civic and Social Responsibility (CSR)"],"Academic Year":["2017-18","2016-17"],"Website":"nmepomaha.org"},"geometry":{"type":"Point","coordinates":[-95.9604795,41.3376846]}},{"type":"Feature","properties":{"CommunityPartner":"Nonprofit Association of the Midlands (NAM)","Address":"","Legislative District Number":20,"Number of projects":0,"Income":56003,"County":"Douglas","Mission Area":"Educational Support","CommunityType":"Nonprofit","Campus Partner":[],"Academic Year":[],"Website":"https:\/\/www.nonprofitam.org\/default.aspx"},"geometry":{"type":"Point","coordinates":[-96.08877,41.23303]}},{"type":"Feature","properties":{"CommunityPartner":"North Omaha Neighborhood Alliance (YBI Awards consult)","Address":"","Legislative District Number":11,"Number of projects":1,"Income":56003,"County":"Douglas","Mission Area":"Economic Sufficiency","CommunityType":"Nonprofit","Campus Partner":["Support and Training for the Evaluation of Programs (STEPs)"],"Academic Year":["2017-18"],"Website":null},"geometry":{"type":"Point","coordinates":[-95.9805769,41.287989]}},{"type":"Feature","properties":{"CommunityPartner":"NorthStar Foundation","Address":"","Legislative District Number":13,"Number of projects":2,"Income":56003,"County":"Douglas","Mission Area":"Educational Support","CommunityType":"Nonprofit","Campus Partner":["Office of Civic and Social Responsibility (CSR)","Engineering"],"Academic Year":["2017-18"],"Website":null},"geometry":{"type":"Point","coordinates":[-95.9887934,41.2973766]}},{"type":"Feature","properties":{"CommunityPartner":"Nothing but Net","Address":"","Legislative District Number":11,"Number of projects":0,"Income":56003,"County":"Douglas","Mission Area":"Health and Wellness","CommunityType":"Nonprofit","Campus Partner":[],"Academic Year":[],"Website":"nothingbutnet1.org"},"geometry":{"type":"Point","coordinates":[-95.9805769,41.287989]}},{"type":"Feature","properties":{"CommunityPartner":"Notre Dame Housing","Address":"","Legislative District Number":13,"Number of projects":2,"Income":56003,"County":"Douglas","Mission Area":"Economic Sufficiency","CommunityType":"Nonprofit","Campus Partner":["Office of Civic and Social Responsibility (CSR)"],"Academic Year":["2017-18"],"Website":null},"geometry":{"type":"Point","coordinates":[-95.9685708,41.3344778]}},{"type":"Feature","properties":{"CommunityPartner":"Ollie Webb Center","Address":"","Legislative District Number":9,"Number of projects":1,"Income":56003,"County":"Douglas","Mission Area":"Economic Sufficiency","CommunityType":"Nonprofit","Campus Partner":["Volunteer Program Assessment-UNO (VPA-UNO)"],"Academic Year":["2016-17"],"Website":null},"geometry":{"type":"Point","coordinates":[-95.9751614,41.2406269]}},{"type":"Feature","properties":{"CommunityPartner":"Omaha Area Youth Orchestra","Address":"","Legislative District Number":7,"Number of projects":0,"Income":56003,"County":"Douglas","Mission Area":"Educational Support","CommunityType":"Nonprofit","Campus Partner":[],"Academic Year":[],"Website":"oayo.org"},"geometry":{"type":"Point","coordinates":[-95.9412502,41.2563749]}},{"type":"Feature","properties":{"CommunityPartner":"Omaha BioFuels Coop","Address":"","Legislative District Number":11,"Number of projects":0,"Income":56003,"County":"Douglas","Mission Area":"Environmental Stewardship","CommunityType":"Nonprofit","Campus Partner":[],"Academic Year":[],"Website":"http:\/\/www.omahabiofuelscoop.org\/"},"geometry":{"type":"Point","coordinates":[-95.941705,41.271216]}},{"type":"Feature","properties":{"CommunityPartner":"Omaha Burke High School","Address":"","Legislative District Number":6,"Number of projects":1,"Income":56003,"County":"Douglas","Mission Area":"Educational Support","CommunityType":"K-12","Campus Partner":["Biology, Department of"],"Academic Year":["2016-17"],"Website":"burke.ops.org"},"geometry":{"type":"Point","coordinates":[-96.1054316,41.2613329]}},{"type":"Feature","properties":{"CommunityPartner":"Omaha By Design","Address":"","Legislative District Number":7,"Number of projects":0,"Income":56003,"County":"Douglas","Mission Area":"Economic Sufficiency","CommunityType":"Nonprofit","Campus Partner":[],"Academic Year":[],"Website":"http:\/\/www.omahabydesign.org\/"},"geometry":{"type":"Point","coordinates":[-95.9310534,41.2535721]}},{"type":"Feature","properties":{"CommunityPartner":"Omaha Girls Rock","Address":"","Legislative District Number":9,"Number of projects":0,"Income":56003,"County":"Douglas","Mission Area":"Educational Support","CommunityType":"Nonprofit","Campus Partner":[],"Academic Year":[],"Website":"https:\/\/www.omahagirlsrock.org\/"},"geometry":{"type":"Point","coordinates":[-96.0107658,41.2578876]}},{"type":"Feature","properties":{"CommunityPartner":"Omaha Healthy Kids Alliance","Address":"","Legislative District Number":8,"Number of projects":0,"Income":56003,"County":"Douglas","Mission Area":"Health and Wellness","CommunityType":"Nonprofit","Campus Partner":[],"Academic Year":[],"Website":"omahahealthykids.org"},"geometry":{"type":"Point","coordinates":[-95.9909012,41.2651575]}},{"type":"Feature","properties":{"CommunityPartner":"Omaha Home for Boys","Address":"","Legislative District Number":13,"Number of projects":0,"Income":56003,"County":"Douglas","Mission Area":"Social Justice","CommunityType":"Nonprofit","Campus Partner":[],"Academic Year":[],"Website":"omahahomeforboys.org"},"geometry":{"type":"Point","coordinates":[-95.991025,41.2981219]}},{"type":"Feature","properties":{"CommunityPartner":"Omaha Housing Authority","Address":"","Legislative District Number":7,"Number of projects":1,"Income":56003,"County":"Douglas","Mission Area":"Economic Sufficiency","CommunityType":"Nonprofit","Campus Partner":["Service Learning Academy (SLA)"],"Academic Year":["2016-17"],"Website":"ohauthority.org"},"geometry":{"type":"Point","coordinates":[-95.9401185,41.2563246]}},{"type":"Feature","properties":{"CommunityPartner":"Omaha North High School","Address":"","Legislative District Number":11,"Number of projects":1,"Income":56003,"County":"Douglas","Mission Area":"Educational Support","CommunityType":"K-12","Campus Partner":["Office of Civic and Social Responsibility (CSR)"],"Academic Year":["2016-17"],"Website":null},"geometry":{"type":"Point","coordinates":[-95.9671479,41.2975921]}},{"type":"Feature","properties":{"CommunityPartner":"Omaha Northwest Magnet High School","Address":"","Legislative District Number":10,"Number of projects":3,"Income":56003,"County":"Douglas","Mission Area":"Educational Support","CommunityType":"K-12","Campus Partner":["Psychology, Department of","Biology, Department of"],"Academic Year":["2016-17"],"Website":"https:\/\/northwest.ops.org"},"geometry":{"type":"Point","coordinates":[-96.0406268,41.3144937]}},{"type":"Feature","properties":{"CommunityPartner":"Omaha Performing Arts","Address":"","Legislative District Number":7,"Number of projects":1,"Income":56003,"County":"Douglas","Mission Area":"Educational Support","CommunityType":"Nonprofit","Campus Partner":["Black Studies, Department of"],"Academic Year":["2017-18"],"Website":"omahaperformingarts.org"},"geometry":{"type":"Point","coordinates":[-95.9326328,41.2591701]}},{"type":"Feature","properties":{"CommunityPartner":"Omaha Police Department","Address":"","Legislative District Number":7,"Number of projects":1,"Income":56003,"County":"Douglas","Mission Area":"Social Justice","CommunityType":"Government Agency","Campus Partner":["Service Learning Academy (SLA)"],"Academic Year":["2016-17"],"Website":null},"geometry":{"type":"Point","coordinates":[-95.9350979,41.2551327]}},{"type":"Feature","properties":{"CommunityPartner":"Omaha Public Library (OPL)","Address":"","Legislative District Number":7,"Number of projects":4,"Income":56003,"County":"Douglas","Mission Area":"Educational Support","CommunityType":"Nonprofit","Campus Partner":["Office of Civic and Social Responsibility (CSR)","Gerontology, Department of","Barbara Weitz Community Engagement Center (CEC)","Volunteer Program Assessment-UNO (VPA-UNO)"],"Academic Year":["2017-18","2016-17"],"Website":"http:\/\/www.omahapubliclibrary.org\/"},"geometry":{"type":"Point","coordinates":[-95.9351094,41.2581041]}},{"type":"Feature","properties":{"CommunityPartner":"Omaha Stormwater","Address":"","Legislative District Number":7,"Number of projects":0,"Income":56003,"County":"Douglas","Mission Area":"Environmental Stewardship","CommunityType":"Nonprofit","Campus Partner":[],"Academic Year":[],"Website":"https:\/\/omahastormwater.org\/"},"geometry":{"type":"Point","coordinates":[-95.9344975,41.2565382]}},{"type":"Feature","properties":{"CommunityPartner":"Omaha Street School","Address":"","Legislative District Number":11,"Number of projects":4,"Income":56003,"County":"Douglas","Mission Area":"Educational Support","CommunityType":"K-12","Campus Partner":["Office of Civic and Social Responsibility (CSR)","Fraternity & Sorority Life"],"Academic Year":["2017-18"],"Website":"omahastreetschool.org"},"geometry":{"type":"Point","coordinates":[-95.9805769,41.287989]}},{"type":"Feature","properties":{"CommunityPartner":"Omaha Symphony","Address":"","Legislative District Number":7,"Number of projects":0,"Income":56003,"County":"Douglas","Mission Area":"Health and Wellness","CommunityType":"Nonprofit","Campus Partner":[],"Academic Year":[],"Website":"www.omahasymphony.org"},"geometry":{"type":"Point","coordinates":[-95.9412502,41.2563749]}},{"type":"Feature","properties":{"CommunityPartner":"Omaha Together One Community (OTOC)","Address":"","Legislative District Number":11,"Number of projects":1,"Income":56003,"County":"Douglas","Mission Area":"Educational Support","CommunityType":"Nonprofit","Campus Partner":["Center for Urban Sustainability"],"Academic Year":["2016-17"],"Website":"http:\/\/otoc.org\/"},"geometry":{"type":"Point","coordinates":[-95.9684292,41.2706505]}},{"type":"Feature","properties":{"CommunityPartner":"ONE Omaha","Address":"","Legislative District Number":9,"Number of projects":8,"Income":56003,"County":"Douglas","Mission Area":"Educational Support","CommunityType":"Nonprofit","Campus Partner":["Office of Civic and Social Responsibility (CSR)","Gerontology, Department of","English, Department of","Barbara Weitz Community Engagement Center (CEC)"],"Academic Year":["2016-17","2017-18"],"Website":"http:\/\/oneomaha.org\/"},"geometry":{"type":"Point","coordinates":[-96.0107658,41.2578876]}},{"type":"Feature","properties":{"CommunityPartner":"One World Omaha","Address":"","Legislative District Number":5,"Number of projects":1,"Income":56003,"County":"Douglas","Mission Area":"Health and Wellness","CommunityType":"Nonprofit","Campus Partner":["Service Learning Academy (SLA)"],"Academic Year":["2016-17"],"Website":"oneworldomaha.org"},"geometry":{"type":"Point","coordinates":[-95.9561635,41.2101026]}},{"type":"Feature","properties":{"CommunityPartner":"Open Door Mission","Address":"","Legislative District Number":13,"Number of projects":4,"Income":53260,"County":"Pottawattamie","Mission Area":"Economic Sufficiency","CommunityType":"Nonprofit","Campus Partner":["Service Learning Academy (SLA)","Housing & Residence Life","Office of Civic and Social Responsibility (CSR)"],"Academic Year":["2016-17","2017-18"],"Website":"opendoormission.org"},"geometry":{"type":"Point","coordinates":[-95.901627,41.2843898]}},{"type":"Feature","properties":{"CommunityPartner":"Opera Omaha","Address":"","Legislative District Number":7,"Number of projects":1,"Income":56003,"County":"Douglas","Mission Area":"Educational Support","CommunityType":"Nonprofit","Campus Partner":["Service Learning Academy (SLA)"],"Academic Year":["2016-17"],"Website":"operaomaha.org"},"geometry":{"type":"Point","coordinates":[-95.9405582,41.2579796]}},{"type":"Feature","properties":{"CommunityPartner":"Operation Youth Success (OYS)","Address":"","Legislative District Number":9,"Number of projects":0,"Income":56003,"County":"Douglas","Mission Area":"Social Justice","CommunityType":"Nonprofit","Campus Partner":[],"Academic Year":[],"Website":"http:\/\/operationyouthsuccess.org\/"},"geometry":{"type":"Point","coordinates":[-96.0107658,41.2578876]}},{"type":"Feature","properties":{"CommunityPartner":"Papillion Fire Department","Address":"","Legislative District Number":14,"Number of projects":1,"Income":72269,"County":"Sarpy","Mission Area":"Health and Wellness","CommunityType":"Nonprofit","Campus Partner":["Office of Civic and Social Responsibility (CSR)"],"Academic Year":["2017-18"],"Website":null},"geometry":{"type":"Point","coordinates":[-96.0446585,41.1570739]}},{"type":"Feature","properties":{"CommunityPartner":"Papillion Lavista Community Schools","Address":"","Legislative District Number":14,"Number of projects":0,"Income":72269,"County":"Sarpy","Mission Area":"Educational Support","CommunityType":"K-12","Campus Partner":[],"Academic Year":[],"Website":"plcschools.org"},"geometry":{"type":"Point","coordinates":[-96.0438483,41.1530575]}},{"type":"Feature","properties":{"CommunityPartner":"Papillion LaVista Early Childhood Programs","Address":"","Legislative District Number":14,"Number of projects":0,"Income":72269,"County":"Sarpy","Mission Area":"Educational Support","CommunityType":"K-12","Campus Partner":[],"Academic Year":[],"Website":"plcschools.org\/domain\/734"},"geometry":{"type":"Point","coordinates":[-96.0395893,41.1735255]}},{"type":"Feature","properties":{"CommunityPartner":"Papio-Missouri River NRD","Address":"","Legislative District Number":49,"Number of projects":1,"Income":72269,"County":"Sarpy","Mission Area":"Environmental Stewardship","CommunityType":"Nonprofit","Campus Partner":["Biology, Department of"],"Academic Year":["2017-18"],"Website":"https:\/\/www.papionrd.org\/"},"geometry":{"type":"Point","coordinates":[-96.1555592,41.170944]}},{"type":"Feature","properties":{"CommunityPartner":"Partnership 4 Kids (P4K)","Address":"","Legislative District Number":7,"Number of projects":6,"Income":56003,"County":"Douglas","Mission Area":"Educational Support","CommunityType":"Nonprofit","Campus Partner":["Office of Civic and Social Responsibility (CSR)","Support and Training for the Evaluation of Programs (STEPs)","Thompson Learning Community","Volunteer Program Assessment-UNO (VPA-UNO)"],"Academic Year":["2016-17","2017-18"],"Website":"http:\/\/p4k.org\/"},"geometry":{"type":"Point","coordinates":[-95.9294959,41.2579241]}},{"type":"Feature","properties":{"CommunityPartner":"Pathways to Compassion Hospice","Address":"","Legislative District Number":6,"Number of projects":1,"Income":56003,"County":"Douglas","Mission Area":"Health and Wellness","CommunityType":"Nonprofit","Campus Partner":["Volunteer Program Assessment-UNO (VPA-UNO)"],"Academic Year":["2016-17"],"Website":null},"geometry":{"type":"Point","coordinates":[-96.0921241,41.2598728]}},{"type":"Feature","properties":{"CommunityPartner":"Pet Helpers Adoption Center","Address":"","Legislative District Number":"","Number of projects":1,"Income":54931,"County":"Charleston","Mission Area":"Environmental Stewardship","CommunityType":"Nonprofit","Campus Partner":["Volunteer Program Assessment-UNO (VPA-UNO)"],"Academic Year":["2016-17"],"Website":null},"geometry":{"type":"Point","coordinates":[-79.9651481,32.712817]}},{"type":"Feature","properties":{"CommunityPartner":"Pilgram Baptist","Address":"","Legislative District Number":11,"Number of projects":0,"Income":56003,"County":"Douglas","Mission Area":"International Service","CommunityType":"Nonprofit","Campus Partner":[],"Academic Year":[],"Website":"pilgrambc.org"},"geometry":{"type":"Point","coordinates":[-95.949006,41.2717544]}},{"type":"Feature","properties":{"CommunityPartner":"Planned Parenthood of the Heartland","Address":"","Legislative District Number":10,"Number of projects":0,"Income":56003,"County":"Douglas","Mission Area":"Health and Wellness","CommunityType":"Nonprofit","Campus Partner":[],"Academic Year":[],"Website":"https:\/\/www.plannedparenthood.org\/planned-parenthood-heartland"},"geometry":{"type":"Point","coordinates":[-96.0554277,41.2876402]}},