{"type":"FeatureCollection","features":[{"type":"Feature","properties":{"CommunityPartner":"75 North","Address":"2112 North 30th Street Omaha NE","Legislative District Number":11,"Number of projects":5,"Income":56003,"County":"Douglas","Mission Area":"Economic Sufficiency","CommunityType":"Nonprofit","Campus Partner":["Aerospace Studies Department"],"Academic Year":["2017-18","2016-17"],"Website":"http:\/\/www.seventyfivenorth.org\/about-75-north\/"},"geometry":{"type":"Point","coordinates":[-95.9574278,41.2789997]}},{"type":"Feature","properties":{"CommunityPartner":"A Time to Heal (ATTH)","Address":"6400 South, University Drive Road North Omaha NE","Legislative District Number":9,"Number of projects":5,"Income":56003,"County":"Douglas","Mission Area":"Health and Wellness","CommunityType":"Nonprofit","Campus Partner":["Anthropology"],"Academic Year":["2017-18","2016-17"],"Website":"http:\/\/atimetohealfoundation.org\/"},"geometry":{"type":"Point","coordinates":[-96.0107658,41.2578876]}},{"type":"Feature","properties":{"CommunityPartner":"AARP","Address":"1941 S 42nd St Omaha NE","Legislative District Number":9,"Number of projects":5,"Income":56003,"County":"Douglas","Mission Area":"Health and Wellness","CommunityType":"Nonprofit","Campus Partner":["Anthropology"],"Academic Year":["2017-18","2016-17"],"Website":"http:\/\/local.aarp.org\/omahane"},"geometry":{"type":"Point","coordinates":[-95.9751614,41.2406269]}},{"type":"Feature","properties":{"CommunityPartner":"Abide Network","Address":"3223 N 45th St Omaha NE","Legislative District Number":11,"Number of projects":10,"Income":56003,"County":"Douglas","Mission Area":"Economic Sufficiency","CommunityType":"Nonprofit","Campus Partner":["Art and Art History, Department of","Ancient Mediterranean Studies"],"Academic Year":["2017-18","2016-17"],"Website":"http:\/\/www.abideomaha.org"},"geometry":{"type":"Point","coordinates":[-95.9805769,41.287989]}},{"type":"Feature","properties":{"CommunityPartner":"Aksarben Senior Center","Address":"1330 S 70th st Omaha NE","Legislative District Number":9,"Number of projects":0,"Income":56003,"County":"Douglas","Mission Area":"Health and Wellness","CommunityType":"Nonprofit","Campus Partner":"","Academic Year":"","Website":"http:\/\/aksarbenseniorliving.com"},"geometry":{"type":"Point","coordinates":[-96.0210058,41.2524191]}},{"type":"Feature","properties":{"CommunityPartner":"Aksarben-Elmwood Neighborhood Association","Address":"1500 S 60th Street Omaha NE","Legislative District Number":9,"Number of projects":0,"Income":56003,"County":"Douglas","Mission Area":"Social Justice","CommunityType":"Nonprofit","Campus Partner":"","Academic Year":"","Website":"https:\/\/aepna.org\/"},"geometry":{"type":"Point","coordinates":[-96.0047507,41.2453568]}},{"type":"Feature","properties":{"CommunityPartner":"Alliance for a Better Omaha","Address":"10525 J St. Omaha NE","Legislative District Number":12,"Number of projects":0,"Income":56003,"County":"Douglas","Mission Area":"Economic Sufficiency","CommunityType":"Nonprofit","Campus Partner":"","Academic Year":"","Website":"http:\/\/togetheromaha.org"},"geometry":{"type":"Point","coordinates":[-96.0780051,41.2137282]}},{"type":"Feature","properties":{"CommunityPartner":"Alzheimer's Association, Nebraska Chapter","Address":"11711 Arbor St #110 Omaha NE","Legislative District Number":20,"Number of projects":0,"Income":56003,"County":"Douglas","Mission Area":"Health and Wellness","CommunityType":"Nonprofit","Campus Partner":"","Academic Year":"","Website":"https:\/\/www.alz.org\/nebraska\/"},"geometry":{"type":"Point","coordinates":[-96.096377,41.235583]}},{"type":"Feature","properties":{"CommunityPartner":"American Cancer Society: Hope Lodge","Address":"8030 Farnam Drive Omaha NE","Legislative District Number":6,"Number of projects":0,"Income":56003,"County":"Douglas","Mission Area":"Health and Wellness","CommunityType":"Nonprofit","Campus Partner":"","Academic Year":"","Website":"https:\/\/www.cancer.org\/treatment\/support-programs-and-services\/patient-lodging\/hope-lodge\/omaha.html"},"geometry":{"type":"Point","coordinates":[-96.0386796,41.25917]}},{"type":"Feature","properties":{"CommunityPartner":"American Legion 373","Address":"7380 Q Street Ralston NE","Legislative District Number":12,"Number of projects":0,"Income":56003,"County":"Douglas","Mission Area":"Health and Wellness","CommunityType":"Nonprofit","Campus Partner":"","Academic Year":"","Website":"https:\/\/centennial.legion.org\/nebraska\/post373"},"geometry":{"type":"Point","coordinates":[-96.0267688,41.2058612]}},{"type":"Feature","properties":{"CommunityPartner":"American Lung Association in Nebraska","Address":"11225 Davenport Street #101 Omaha NE","Legislative District Number":6,"Number of projects":0,"Income":56003,"County":"Douglas","Mission Area":"Health and Wellness","CommunityType":"Nonprofit","Campus Partner":"","Academic Year":"","Website":"https:\/\/www.lung.org\/about-us\/local-associations\/nebraska.html"},"geometry":{"type":"Point","coordinates":[-96.0873385,41.2604741]}},{"type":"Feature","properties":{"CommunityPartner":"Apostle Nursing Home Health Care","Address":"14511 Borman St Omaha NE","Legislative District Number":49,"Number of projects":0,"Income":72269,"County":"Sarpy","Mission Area":"Health and Wellness","CommunityType":"Nonprofit","Campus Partner":"","Academic Year":"","Website":"http:\/\/www.spenddownnebraska.com\/"},"geometry":{"type":"Point","coordinates":[-96.1411214,41.1880613]}},{"type":"Feature","properties":{"CommunityPartner":"Arts for All","Address":"4411 S 24th St Omaha NE","Legislative District Number":7,"Number of projects":0,"Income":56003,"County":"Douglas","Mission Area":"Educational Support","CommunityType":"Nonprofit","Campus Partner":"","Academic Year":"","Website":"http:\/\/www.artsforallomaha.org"},"geometry":{"type":"Point","coordinates":[-95.9466055,41.215742]}},{"type":"Feature","properties":{"CommunityPartner":"Autism Society of NE","Address":"9012 Q St. Omaha NE","Legislative District Number":12,"Number of projects":0,"Income":56003,"County":"Douglas","Mission Area":"Health and Wellness","CommunityType":"Nonprofit","Campus Partner":"","Academic Year":"","Website":"http:\/\/autismcenterfornebraska.org"},"geometry":{"type":"Point","coordinates":[-96.0534321,41.2063067]}},{"type":"Feature","properties":{"CommunityPartner":"Avenue Scholars Foundation","Address":"7101 Mercy Rd Ste 240 Omaha NE","Legislative District Number":9,"Number of projects":0,"Income":56003,"County":"Douglas","Mission Area":"Educational Support","CommunityType":"Nonprofit","Campus Partner":"","Academic Year":"","Website":"http:\/\/www.avescholars.org\/"},"geometry":{"type":"Point","coordinates":[-96.0218413,41.2372233]}},{"type":"Feature","properties":{"CommunityPartner":"Buford Foundation","Address":"13303 F St Omaha NE","Legislative District Number":20,"Number of projects":0,"Income":56003,"County":"Douglas","Mission Area":"Educational Support","CommunityType":"Nonprofit","Campus Partner":"","Academic Year":"","Website":"https:\/\/campconfidence.org\/"},"geometry":{"type":"Point","coordinates":[-96.1225471,41.2190264]}},{"type":"Feature","properties":{"CommunityPartner":"Campus Compact for the Great Plains","Address":"45 Temple Place Boston MA","Legislative District Number":0,"Number of projects":0,"Income":57439,"County":"Suffolk","Mission Area":"Educational Support","CommunityType":"Nonprofit","Campus Partner":"","Academic Year":"","Website":"http:\/\/greatplains.compact.org\/"},"geometry":{"type":"Point","coordinates":[-71.0619177,42.3548993]}},{"type":"Feature","properties":{"CommunityPartner":"Citizen\u00d5s Climate Lobby","Address":"1330 Orange Ave # 300 Coronado CA","Legislative District Number":0,"Number of projects":0,"Income":66529,"County":"San Diego","Mission Area":"Educational Support","CommunityType":"Nonprofit","Campus Partner":"","Academic Year":"","Website":"https:\/\/citizensclimatelobby.org\/chapters\/NE_Omaha\/"},"geometry":{"type":"Point","coordinates":[-117.1787619,32.6826727]}},{"type":"Feature","properties":{"CommunityPartner":"City of Omaha","Address":"1819 Farnam Street Omaha NE","Legislative District Number":7,"Number of projects":0,"Income":56003,"County":"Douglas","Mission Area":"Economic Sufficiency","CommunityType":"Government Agency","Campus Partner":"","Academic Year":"","Website":"https:\/\/www.cityofomaha.org\/"},"geometry":{"type":"Point","coordinates":[-95.9403931,41.2570498]}},{"type":"Feature","properties":{"CommunityPartner":"City of Omaha: Mandan Park","Address":"6215 South 13th Street Omaha NE","Legislative District Number":7,"Number of projects":0,"Income":56003,"County":"Douglas","Mission Area":"Environmental Stewardship","CommunityType":"Nonprofit","Campus Partner":"","Academic Year":"","Website":"http:\/\/parks.cityofomaha.org\/contact"},"geometry":{"type":"Point","coordinates":[-95.930362,41.1913174]}},{"type":"Feature","properties":{"CommunityPartner":"City Sprouts","Address":"4002 Seward St Omaha NE","Legislative District Number":11,"Number of projects":0,"Income":56003,"County":"Douglas","Mission Area":"Environmental Stewardship","CommunityType":"Nonprofit","Campus Partner":"","Academic Year":"","Website":"http:\/\/omahasprouts.org"},"geometry":{"type":"Point","coordinates":[-95.9729104,41.274268]}},{"type":"Feature","properties":{"CommunityPartner":"Civic Nebraska","Address":"1327 H St Ste. 102 Lincoln NE","Legislative District Number":28,"Number of projects":0,"Income":53730,"County":"Lancaster","Mission Area":"Educational Support","CommunityType":"Nonprofit","Campus Partner":"","Academic Year":"","Website":"http:\/\/nereform.org\/"},"geometry":{"type":"Point","coordinates":[-96.7018693,40.8066471]}},{"type":"Feature","properties":{"CommunityPartner":"Claremont School of Theology","Address":"1325 N College Ave Claremont CA","Legislative District Number":0,"Number of projects":0,"Income":57952,"County":"Los Angeles","Mission Area":"Educational Support","CommunityType":"Higher Education Institution","Campus Partner":"","Academic Year":"","Website":"https:\/\/cst.edu\/"},"geometry":{"type":"Point","coordinates":[-117.716307,34.1077059]}},{"type":"Feature","properties":{"CommunityPartner":"Clemson University","Address":"230 Kappa Street Clemson SC","Legislative District Number":0,"Number of projects":0,"Income":43531,"County":"Pickens","Mission Area":"Educational Support","CommunityType":"Higher Education Institution","Campus Partner":"","Academic Year":"","Website":"http:\/\/www.clemson.edu\/"},"geometry":{"type":"Point","coordinates":[-82.8367365,34.6753184]}},{"type":"Feature","properties":{"CommunityPartner":"Coalition RX","Address":"6400 South, University Drive Road North Omaha NE","Legislative District Number":9,"Number of projects":0,"Income":56003,"County":"Douglas","Mission Area":"Health and Wellness","CommunityType":"Nonprofit","Campus Partner":"","Academic Year":"","Website":"http:\/\/coalitionrx.org\/"},"geometry":{"type":"Point","coordinates":[-96.0107658,41.2578876]}},{"type":"Feature","properties":{"CommunityPartner":"College of Saint Mary","Address":"7000 Mercy Rd Omaha NE","Legislative District Number":9,"Number of projects":0,"Income":56003,"County":"Douglas","Mission Area":"Educational Support","CommunityType":"Higher Education Institution","Campus Partner":"","Academic Year":"","Website":"http:\/\/www.csm.edu\/"},"geometry":{"type":"Point","coordinates":[-96.0220528,41.2399078]}},{"type":"Feature","properties":{"CommunityPartner":"Common Seed Soil Library, Omaha Public Library (OPL)","Address":"215 S 15th St Omaha NE","Legislative District Number":7,"Number of projects":0,"Income":56003,"County":"Douglas","Mission Area":"Environmental Stewardship","CommunityType":"Nonprofit","Campus Partner":"","Academic Year":"","Website":"https:\/\/omahalibrary.org\/welcome-to-the-common-soil-library\/"},"geometry":{"type":"Point","coordinates":[-95.9351094,41.2581041]}},{"type":"Feature","properties":{"CommunityPartner":"Common Sense Media: Omaha Public Schools","Address":"650 Townsend Suite 435 San Francisco CA","Legislative District Number":0,"Number of projects":0,"Income":87701,"County":"San Francisco","Mission Area":"Educational Support","CommunityType":"K-12","Campus Partner":"","Academic Year":"","Website":"https:\/\/commonsensemedia.org"},"geometry":{"type":"Point","coordinates":[-122.4033069,37.7710325]}},{"type":"Feature","properties":{"CommunityPartner":"Completely Kids","Address":"2566 St Marys Ave Omaha NE","Legislative District Number":7,"Number of projects":0,"Income":56003,"County":"Douglas","Mission Area":"Educational Support","CommunityType":"Nonprofit","Campus Partner":"","Academic Year":"","Website":"http:\/\/completelykids.org"},"geometry":{"type":"Point","coordinates":[-95.9496407,41.2540701]}},{"type":"Feature","properties":{"CommunityPartner":"Creighton University","Address":"2500 California Plaza Omaha NE","Legislative District Number":11,"Number of projects":0,"Income":56003,"County":"Douglas","Mission Area":"Educational Support","CommunityType":"Higher Education Institution","Campus Partner":"","Academic Year":"","Website":"https:\/\/www.creighton.edu\/trio\/"},"geometry":{"type":"Point","coordinates":[-95.9486026,41.2655878]}},{"type":"Feature","properties":{"CommunityPartner":"Cultural Enrichment Fund","Address":"301 Market St # 5 Harrisburg PA","Legislative District Number":0,"Number of projects":0,"Income":62640,"County":"Cumberland","Mission Area":"Educational Support","CommunityType":"Nonprofit","Campus Partner":"","Academic Year":"","Website":"https:\/\/culturalenrichmentfund.org\/"},"geometry":{"type":"Point","coordinates":[-76.8803158,40.2607816]}},{"type":"Feature","properties":{"CommunityPartner":"D2 Center","Address":"1841 S 42nd St Omaha NE","Legislative District Number":9,"Number of projects":0,"Income":56003,"County":"Douglas","Mission Area":"Educational Support","CommunityType":"Nonprofit","Campus Partner":"","Academic Year":"","Website":"http:\/\/d2center.org"},"geometry":{"type":"Point","coordinates":[-95.9758577,41.2423638]}},{"type":"Feature","properties":{"CommunityPartner":"DoD - Defense POW\/MIA Accounting Agency","Address":"1400 Defense Pentagon Washington DC","Legislative District Number":0,"Number of projects":0,"Income":108706,"County":"Arlington","Mission Area":"Social Justice","CommunityType":"Nonprofit","Campus Partner":"","Academic Year":"","Website":"http:\/\/www.defense.gov\/Resources\/Contact-DoD\/source\/nav\/"},"geometry":{"type":"Point","coordinates":[-77.0563653,38.8718372]}},{"type":"Feature","properties":{"CommunityPartner":"Douglas County Department of Health & Human Services","Address":"1111 S 41st St Omaha NE","Legislative District Number":9,"Number of projects":0,"Income":56003,"County":"Douglas","Mission Area":"Health and Wellness","CommunityType":"Government Agency","Campus Partner":"","Academic Year":"","Website":"http:\/\/dhhs.ne.gov"},"geometry":{"type":"Point","coordinates":[-95.9739069,41.2484543]}},{"type":"Feature","properties":{"CommunityPartner":"Douglas County Health Department","Address":"1101 S 42nd St N\/A N\/A","Legislative District Number":9,"Number of projects":0,"Income":56003,"County":"Douglas","Mission Area":"Health and Wellness","CommunityType":"Government Agency","Campus Partner":"","Academic Year":"","Website":"https:\/\/www.douglascountyhealth.com\/"},"geometry":{"type":"Point","coordinates":[-95.9752027,41.2484065]}},{"type":"Feature","properties":{"CommunityPartner":"Down Syndrome Alliance of the Midlands (DSM)","Address":"6400 South, University Drive Road North Omaha NE","Legislative District Number":9,"Number of projects":0,"Income":56003,"County":"Douglas","Mission Area":"Health and Wellness","CommunityType":"Nonprofit","Campus Partner":"","Academic Year":"","Website":"http:\/\/www.dsamidlands.org\/"},"geometry":{"type":"Point","coordinates":[-96.0107658,41.2578876]}},{"type":"Feature","properties":{"CommunityPartner":"Durham Museum","Address":"801 S 10th St Omaha NE","Legislative District Number":7,"Number of projects":0,"Income":56003,"County":"Douglas","Mission Area":"Educational Support","CommunityType":"Nonprofit","Campus Partner":"","Academic Year":"","Website":"http:\/\/durhammuseum.org"},"geometry":{"type":"Point","coordinates":[-95.9285879,41.2514804]}},{"type":"Feature","properties":{"CommunityPartner":"Eastern Nebraska Veterans Home","Address":"12505 South 40th Street Bellevue NE","Legislative District Number":3,"Number of projects":0,"Income":72269,"County":"Sarpy","Mission Area":"Health and Wellness","CommunityType":"Nonprofit","Campus Partner":"","Academic Year":"","Website":"https:\/\/veterans.nebraska.gov\/eastern-nebraska-veterans-home"},"geometry":{"type":"Point","coordinates":[-95.9734034,41.1245213]}},{"type":"Feature","properties":{"CommunityPartner":"El Museo Latino","Address":"4701 S 25th St Omaha NE","Legislative District Number":7,"Number of projects":0,"Income":56003,"County":"Douglas","Mission Area":"International Service","CommunityType":"Nonprofit","Campus Partner":"","Academic Year":"","Website":"http:\/\/www.elmuseolatino.org"},"geometry":{"type":"Point","coordinates":[-95.9480305,41.211715]}},{"type":"Feature","properties":{"CommunityPartner":"Environmental Finance Center","Address":"250 E. Franklin Street Chapel Hill NC","Legislative District Number":0,"Number of projects":0,"Income":61130,"County":"Orange","Mission Area":"Educational Support","CommunityType":"Nonprofit","Campus Partner":"","Academic Year":"","Website":"https:\/\/efc.sog.unc.edu\/"},"geometry":{"type":"Point","coordinates":[-79.0505178,35.9138854]}},{"type":"Feature","properties":{"CommunityPartner":"Environmental Protection Agency (EPA Region 7)","Address":"11201 Renner Blvd. Lenexa KA","Legislative District Number":0,"Number of projects":0,"Income":78186,"County":"Johnson","Mission Area":"Environmental Stewardship","CommunityType":"Nonprofit","Campus Partner":"","Academic Year":"","Website":"https:\/\/www.epa.gov\/aboutepa\/epa-region-7-midwest"},"geometry":{"type":"Point","coordinates":[-94.777329,38.9250721]}},{"type":"Feature","properties":{"CommunityPartner":"Film Streams","Address":"1640 Mike Fahey St Omaha NE","Legislative District Number":11,"Number of projects":0,"Income":56003,"County":"Douglas","Mission Area":"Educational Support","CommunityType":"Nonprofit","Campus Partner":"","Academic Year":"","Website":"http:\/\/filmstreams.org"},"geometry":{"type":"Point","coordinates":[-95.9380954,41.2661646]}},{"type":"Feature","properties":{"CommunityPartner":"First Responders Foundation","Address":"809 N 96th Street Omaha NE","Legislative District Number":6,"Number of projects":0,"Income":56003,"County":"Douglas","Mission Area":"Economic Sufficiency","CommunityType":"Nonprofit","Campus Partner":"","Academic Year":"","Website":"https:\/\/firstrespondersomaha.org\/"},"geometry":{"type":"Point","coordinates":[-96.0615554,41.2676284]}},{"type":"Feature","properties":{"CommunityPartner":"Fontenelle Elementary School","Address":"3905 N 52nd St Omaha NE","Legislative District Number":13,"Number of projects":0,"Income":56003,"County":"Douglas","Mission Area":"Educational Support","CommunityType":"K-12","Campus Partner":"","Academic Year":"","Website":"http:\/\/fontenelle.ops.org"},"geometry":{"type":"Point","coordinates":[-95.9928709,41.293494]}},{"type":"Feature","properties":{"CommunityPartner":"Fontenelle Forest","Address":"1111 Bellevue Blvd Bellevue NE","Legislative District Number":45,"Number of projects":0,"Income":72269,"County":"Sarpy","Mission Area":"Environmental Stewardship","CommunityType":"Nonprofit","Campus Partner":"","Academic Year":"","Website":"http:\/\/fontanelleforest.org"},"geometry":{"type":"Point","coordinates":[-95.9177367,41.1800797]}},{"type":"Feature","properties":{"CommunityPartner":"Foster Grandparents Program","Address":"4223 Center St Omaha NE","Legislative District Number":9,"Number of projects":0,"Income":56003,"County":"Douglas","Mission Area":"Economic Sufficiency","CommunityType":"Nonprofit","Campus Partner":"","Academic Year":"","Website":"http:\/\/enoa.org"},"geometry":{"type":"Point","coordinates":[-95.9766236,41.2412138]}},{"type":"Feature","properties":{"CommunityPartner":"Frank Stoysich Meats","Address":"5170 Q St Omaha NE","Legislative District Number":5,"Number of projects":0,"Income":56003,"County":"Douglas","Mission Area":"Health and Wellness","CommunityType":"Nonprofit","Campus Partner":"","Academic Year":"","Website":"http:\/\/frankstoysichmeats.com"},"geometry":{"type":"Point","coordinates":[-95.9957042,41.2055703]}},{"type":"Feature","properties":{"CommunityPartner":"George Washington University","Address":"2121 Eye Street, NW Washington DC","Legislative District Number":0,"Number of projects":0,"Income":72935,"County":"District of Columbia","Mission Area":"Educational Support","CommunityType":"Higher Education Institution","Campus Partner":"","Academic Year":"","Website":"https:\/\/www.gwu.edu\/"},"geometry":{"type":"Point","coordinates":[-77.0476606,38.9009637]}},{"type":"Feature","properties":{"CommunityPartner":"Girl Scouts Spirit of Nebraska","Address":"2121 S 44th St Omaha NE","Legislative District Number":9,"Number of projects":0,"Income":56003,"County":"Douglas","Mission Area":"Educational Support","CommunityType":"Nonprofit","Campus Partner":"","Academic Year":"","Website":"http:\/\/www.girlscoutsnebraska.org\/"},"geometry":{"type":"Point","coordinates":[-95.9778463,41.239197]}},{"type":"Feature","properties":{"CommunityPartner":"Green Bellevue","Address":"4522 Borman Street Bellevue NE","Legislative District Number":3,"Number of projects":0,"Income":72269,"County":"Sarpy","Mission Area":"Environmental Stewardship","CommunityType":"Nonprofit","Campus Partner":"","Academic Year":"","Website":"https:\/\/sites.google.com\/a\/greenbellevue.org\/green-bellevue\/"},"geometry":{"type":"Point","coordinates":[-95.9835262,41.1878235]}},{"type":"Feature","properties":{"CommunityPartner":"Grief's Journey","Address":"7811 Farnam Dr Omaha NE","Legislative District Number":6,"Number of projects":0,"Income":56003,"County":"Douglas","Mission Area":"Health and Wellness","CommunityType":"Nonprofit","Campus Partner":"","Academic Year":"","Website":"http:\/\/griefsjourney.org"},"geometry":{"type":"Point","coordinates":[-96.0348137,41.2572031]}},{"type":"Feature","properties":{"CommunityPartner":"Habitat Omaha ReStore","Address":"1701 N 24th St Omaha NE","Legislative District Number":11,"Number of projects":0,"Income":56003,"County":"Douglas","Mission Area":"Economic Sufficiency","CommunityType":"Nonprofit","Campus Partner":"","Academic Year":"","Website":"https:\/\/www.habitat.org\/"},"geometry":{"type":"Point","coordinates":[-95.9461836,41.2747423]}},{"type":"Feature","properties":{"CommunityPartner":"Harvey Oakes Elementary","Address":"15228 Shirley St Omaha NE","Legislative District Number":4,"Number of projects":0,"Income":56003,"County":"Douglas","Mission Area":"Educational Support","CommunityType":"Nonprofit","Campus Partner":"","Academic Year":"","Website":"http:\/\/harveyoaks.mps.org"},"geometry":{"type":"Point","coordinates":[-96.1519486,41.2405492]}},{"type":"Feature","properties":{"CommunityPartner":"Heartland B-cycle","Address":"1085 Jackson Street Omaha NE","Legislative District Number":7,"Number of projects":0,"Income":56003,"County":"Douglas","Mission Area":"Environmental Stewardship","CommunityType":"Nonprofit","Campus Partner":"","Academic Year":"","Website":"https:\/\/heartland.bcycle.com\/"},"geometry":{"type":"Point","coordinates":[-95.9303282,41.2542412]}},{"type":"Feature","properties":{"CommunityPartner":"Heartland Family Services","Address":"2101 S 42nd St Omaha NE","Legislative District Number":9,"Number of projects":0,"Income":56003,"County":"Douglas","Mission Area":"Economic Sufficiency","CommunityType":"Nonprofit","Campus Partner":"","Academic Year":"","Website":"http:\/\/heartlandfamilyservices.org"},"geometry":{"type":"Point","coordinates":[-95.9754994,41.2396388]}},{"type":"Feature","properties":{"CommunityPartner":"Heartland Hope Mission","Address":"20210 U St Omaha NE","Legislative District Number":39,"Number of projects":0,"Income":56003,"County":"Douglas","Mission Area":"Economic Sufficiency","CommunityType":"Nonprofit","Campus Partner":"","Academic Year":"","Website":"http:\/\/heartlandhopemission.org"},"geometry":{"type":"Point","coordinates":[-96.212641,41.2018516]}},{"type":"Feature","properties":{"CommunityPartner":"Heartland Workers Center","Address":"49235 24th St Omaha NE","Legislative District Number":7,"Number of projects":0,"Income":56003,"County":"Douglas","Mission Area":"Social Justice","CommunityType":"Nonprofit","Campus Partner":"","Academic Year":"","Website":"http:\/\/heartlandworkercenter.org"},"geometry":{"type":"Point","coordinates":[-95.9470584,41.2294217]}},{"type":"Feature","properties":{"CommunityPartner":"Heron Haven","Address":"11809 Old Maple Rd Omaha NE","Legislative District Number":18,"Number of projects":0,"Income":56003,"County":"Douglas","Mission Area":"Environmental Stewardship","CommunityType":"Nonprofit","Campus Partner":"","Academic Year":"","Website":"http:\/\/heronhaven.org"},"geometry":{"type":"Point","coordinates":[-96.0970904,41.2926688]}},{"type":"Feature","properties":{"CommunityPartner":"Humanities Nebraska","Address":"215 Centennial Mall South, Suite 330 Lincoln NE","Legislative District Number":28,"Number of projects":0,"Income":53730,"County":"Lancaster","Mission Area":"Educational Support","CommunityType":"Nonprofit","Campus Partner":"","Academic Year":"","Website":"http:\/\/humanitiesnebraska.org\/"},"geometry":{"type":"Point","coordinates":[-96.7001142,40.8121822]}},{"type":"Feature","properties":{"CommunityPartner":"Hunger Collaborative","Address":"10525 J St. Omaha NE","Legislative District Number":12,"Number of projects":0,"Income":56003,"County":"Douglas","Mission Area":"Health and Wellness","CommunityType":"Nonprofit","Campus Partner":"","Academic Year":"","Website":"http:\/\/togetheromaha.org"},"geometry":{"type":"Point","coordinates":[-96.0780051,41.2137282]}},{"type":"Feature","properties":{"CommunityPartner":"Hunger Free Heartland","Address":"13911 Gold Cir Ste. 120 Omaha NE","Legislative District Number":20,"Number of projects":0,"Income":56003,"County":"Douglas","Mission Area":"Educational Support","CommunityType":"Nonprofit","Campus Partner":"","Academic Year":"","Website":"https:\/\/hungerfreeheartland.org\/"},"geometry":{"type":"Point","coordinates":[-96.1299606,41.2344851]}},{"type":"Feature","properties":{"CommunityPartner":"ICAN","Address":"14217 Dayton Cir #5 Omaha NE","Legislative District Number":20,"Number of projects":0,"Income":56003,"County":"Douglas","Mission Area":"Educational Support","CommunityType":"Nonprofit","Campus Partner":"","Academic Year":"","Website":"http:\/\/icanglobal.net"},"geometry":{"type":"Point","coordinates":[-96.135927,41.2163256]}},{"type":"Feature","properties":{"CommunityPartner":"Immanuel Village Senior Living","Address":"6803 N 68th Plaza Omaha NE","Legislative District Number":13,"Number of projects":0,"Income":56003,"County":"Douglas","Mission Area":"","CommunityType":"","Campus Partner":"","Academic Year":"","Website":"http:\/\/www.immanuel.com\/community\/immanuel-village"},"geometry":{"type":"Point","coordinates":[-96.015569,41.3202659]}},{"type":"Feature","properties":{"CommunityPartner":"Inclusive Communities (IC)","Address":"6400 South, University Drive Road North Omaha NE","Legislative District Number":9,"Number of projects":0,"Income":56003,"County":"Douglas","Mission Area":"Social Justice","CommunityType":"Nonprofit","Campus Partner":"","Academic Year":"","Website":"http:\/\/www.inclusive-communities.org\/"},"geometry":{"type":"Point","coordinates":[-96.0107658,41.2578876]}},{"type":"Feature","properties":{"CommunityPartner":"Institute for Holocaust Education","Address":"333 South 132nd Street Omaha NE","Legislative District Number":6,"Number of projects":0,"Income":56003,"County":"Douglas","Mission Area":"Educational Support","CommunityType":"Nonprofit","Campus Partner":"","Academic Year":"","Website":"http:\/\/www.ihene.org\/"},"geometry":{"type":"Point","coordinates":[-96.1170563,41.2568308]}},{"type":"Feature","properties":{"CommunityPartner":"Institute for Public Leaders","Address":"3647 Lafayette Ave Omaha NE","Legislative District Number":11,"Number of projects":0,"Income":56003,"County":"Douglas","Mission Area":"Educational Support","CommunityType":"Nonprofit","Campus Partner":"","Academic Year":"","Website":"http:\/\/iplomaha.org"},"geometry":{"type":"Point","coordinates":[-95.9684292,41.2706505]}},{"type":"Feature","properties":{"CommunityPartner":"Intercultural Senior Center","Address":"3010 R St. Omaha NE","Legislative District Number":5,"Number of projects":0,"Income":56003,"County":"Douglas","Mission Area":"International Service","CommunityType":"Nonprofit","Campus Partner":"","Academic Year":"","Website":"http:\/\/interculturalseniorcenter.org"},"geometry":{"type":"Point","coordinates":[-95.9585457,41.2051075]}},{"type":"Feature","properties":{"CommunityPartner":"Islamic Center of Omaha","Address":"3511 N 73rd Street Omaha NE","Legislative District Number":8,"Number of projects":0,"Income":56003,"County":"Douglas","Mission Area":"International Service","CommunityType":"Nonprofit","Campus Partner":"","Academic Year":"","Website":"https:\/\/www.icomaha.org\/?fbclid=IwAR1P-0sy6cG81omm-_cxK4mu4ZGNCrf58cq1LLLpt4cvlbaXUoJvE4W-nrc"},"geometry":{"type":"Point","coordinates":[-96.0258632,41.2912621]}},{"type":"Feature","properties":{"CommunityPartner":"Jewish Community Center","Address":"333 S 132nd ST Omaha NE","Legislative District Number":6,"Number of projects":0,"Income":56003,"County":"Douglas","Mission Area":"Health and Wellness","CommunityType":"Nonprofit","Campus Partner":"","Academic Year":"","Website":"http:\/\/www.jewishomaha.org\/jcc\/"},"geometry":{"type":"Point","coordinates":[-96.1170563,41.2568308]}},{"type":"Feature","properties":{"CommunityPartner":"Josie Harper Hospice House","Address":"7415 Cedar Street Omaha NE","Legislative District Number":20,"Number of projects":0,"Income":56003,"County":"Douglas","Mission Area":"Health and Wellness","CommunityType":"Nonprofit","Campus Partner":"","Academic Year":"","Website":"http:\/\/www.hospicehouseomaha.org\/Site\/Welcome.html"},"geometry":{"type":"Point","coordinates":[-96.0268553,41.240084]}},{"type":"Feature","properties":{"CommunityPartner":"Josie Harper House","Address":"7415 Cedar Street Omaha NE","Legislative District Number":20,"Number of projects":0,"Income":56003,"County":"Douglas","Mission Area":"Health and Wellness","CommunityType":"Nonprofit","Campus Partner":"","Academic Year":"","Website":"http:\/\/www.hospicehouseomaha.org\/Site\/Welcome.html"},"geometry":{"type":"Point","coordinates":[-96.0268553,41.240084]}},{"type":"Feature","properties":{"CommunityPartner":"Joslyn Art Museum","Address":"2200 Dodge St Omaha NE","Legislative District Number":7,"Number of projects":0,"Income":56003,"County":"Douglas","Mission Area":"Educational Support","CommunityType":"Nonprofit","Campus Partner":"","Academic Year":"","Website":"http:\/\/joslyn.org"},"geometry":{"type":"Point","coordinates":[-95.9460901,41.2602744]}},{"type":"Feature","properties":{"CommunityPartner":"Junior Achievement of Omaha","Address":"13506 W Maple Rd Omaha NE","Legislative District Number":18,"Number of projects":0,"Income":56003,"County":"Douglas","Mission Area":"Educational Support","CommunityType":"Nonprofit","Campus Partner":"","Academic Year":"","Website":"http:\/\/juniorachievement.org"},"geometry":{"type":"Point","coordinates":[-96.1251573,41.2926634]}},{"type":"Feature","properties":{"CommunityPartner":"Justice For Our Neighbors (JFON)","Address":"2414 E St Omaha NE","Legislative District Number":7,"Number of projects":0,"Income":56003,"County":"Douglas","Mission Area":"Social Justice","CommunityType":"Nonprofit","Campus Partner":"","Academic Year":"","Website":"http:\/\/jfon-ne.org\/"},"geometry":{"type":"Point","coordinates":[-95.9482062,41.2211754]}},{"type":"Feature","properties":{"CommunityPartner":"Kaneko","Address":"1111 Jones St Omaha NE","Legislative District Number":7,"Number of projects":0,"Income":56003,"County":"Douglas","Mission Area":"Educational Support","CommunityType":"Nonprofit","Campus Partner":"","Academic Year":"","Website":"http:\/\/thekaneko.org"},"geometry":{"type":"Point","coordinates":[-95.9309308,41.2531026]}},{"type":"Feature","properties":{"CommunityPartner":"Keep Omaha Beautiful","Address":"1819 Farnam St Omaha NE","Legislative District Number":7,"Number of projects":0,"Income":56003,"County":"Douglas","Mission Area":"Environmental Stewardship","CommunityType":"Nonprofit","Campus Partner":"","Academic Year":"","Website":"http:\/\/keepomahabeautiful.org"},"geometry":{"type":"Point","coordinates":[-95.9403931,41.2570498]}},{"type":"Feature","properties":{"CommunityPartner":"Kids Can","Address":"4860 Q St Omaha NE","Legislative District Number":5,"Number of projects":0,"Income":56003,"County":"Douglas","Mission Area":"Educational Support","CommunityType":"Nonprofit","Campus Partner":"","Academic Year":"","Website":"http:\/\/kidscanomaha.org"},"geometry":{"type":"Point","coordinates":[-95.9886074,41.2057113]}},{"type":"Feature","properties":{"CommunityPartner":"Kiewit Middle School","Address":"1560 Howard St Omaha NE","Legislative District Number":7,"Number of projects":0,"Income":56003,"County":"Douglas","Mission Area":"Educational Support","CommunityType":"K-12","Campus Partner":"","Academic Year":"","Website":"http:\/\/kms.mps.org"},"geometry":{"type":"Point","coordinates":[-95.9369852,41.2558116]}},{"type":"Feature","properties":{"CommunityPartner":"La Vista Public Library","Address":"9110 Giles Rd La Vista NE","Legislative District Number":14,"Number of projects":0,"Income":72269,"County":"Sarpy","Mission Area":"Educational Support","CommunityType":"Nonprofit","Campus Partner":"","Academic Year":"","Website":"http:\/\/cityoflavista.org\/library"},"geometry":{"type":"Point","coordinates":[-96.0542902,41.1771757]}},{"type":"Feature","properties":{"CommunityPartner":"Lauritzen Gardens","Address":"100 Bancroft Omaha NE","Legislative District Number":7,"Number of projects":0,"Income":56003,"County":"Douglas","Mission Area":"Environmental Stewardship","CommunityType":"Nonprofit","Campus Partner":"","Academic Year":"","Website":"http:\/\/lauritzengardens.org"},"geometry":{"type":"Point","coordinates":[-95.9166359,41.234421]}},{"type":"Feature","properties":{"CommunityPartner":"League of Women Voters","Address":"115 S 49th Ave Omaha NE","Legislative District Number":8,"Number of projects":0,"Income":56003,"County":"Douglas","Mission Area":"Educational Support","CommunityType":"Nonprofit","Campus Partner":"","Academic Year":"","Website":"https:\/\/www.lwv.org\/"},"geometry":{"type":"Point","coordinates":[-95.9885078,41.2584108]}},{"type":"Feature","properties":{"CommunityPartner":"Learning Community Center of North Omaha","Address":"1612 N 24th St Omaha NE","Legislative District Number":11,"Number of projects":0,"Income":56003,"County":"Douglas","Mission Area":"Educational Support","CommunityType":"Nonprofit","Campus Partner":"","Academic Year":"","Website":"http:\/\/www.learningcommunityds.org"},"geometry":{"type":"Point","coordinates":[-95.9476589,41.2745002]}},{"type":"Feature","properties":{"CommunityPartner":"Learning Community Center of South Omaha","Address":"2302 M St Omaha NE","Legislative District Number":7,"Number of projects":0,"Income":56003,"County":"Douglas","Mission Area":"Educational Support","CommunityType":"Nonprofit","Campus Partner":"","Academic Year":"","Website":"http:\/\/learningcommunityds.org"},"geometry":{"type":"Point","coordinates":[-95.9458837,41.211278]}},{"type":"Feature","properties":{"CommunityPartner":"Legal Aid of Nebraska","Address":"209 S 19th St #200 Omaha NE","Legislative District Number":7,"Number of projects":0,"Income":56003,"County":"Douglas","Mission Area":"Economic Sufficiency","CommunityType":"Nonprofit","Campus Partner":"","Academic Year":"","Website":"http:\/\/legalaideofnebraska.org"},"geometry":{"type":"Point","coordinates":[-95.9407233,41.2582838]}},{"type":"Feature","properties":{"CommunityPartner":"Lewis and Clark Middle School","Address":"6901 Burt St Omaha NE","Legislative District Number":6,"Number of projects":0,"Income":56003,"County":"Douglas","Mission Area":"Educational Support","CommunityType":"K-12","Campus Partner":"","Academic Year":"","Website":"http:\/\/lewisandclark.ops.org"},"geometry":{"type":"Point","coordinates":[-96.0198689,41.2660481]}},{"type":"Feature","properties":{"CommunityPartner":"Live Well Omaha","Address":"6400 South, University Drive Road North Omaha NE","Legislative District Number":9,"Number of projects":0,"Income":56003,"County":"Douglas","Mission Area":"Health and Wellness","CommunityType":"Nonprofit","Campus Partner":"","Academic Year":"","Website":"http:\/\/livewellomaha.org\/"},"geometry":{"type":"Point","coordinates":[-96.0107658,41.2578876]}},{"type":"Feature","properties":{"CommunityPartner":"Love's Jazz and Art Center","Address":"2219, 2510 N 24th Street Omaha NE","Legislative District Number":11,"Number of projects":0,"Income":56003,"County":"Douglas","Mission Area":"Educational Support","CommunityType":"Nonprofit","Campus Partner":"","Academic Year":"","Website":"https:\/\/www.facebook.com\/lovesjazzandartcenter"},"geometry":{"type":"Point","coordinates":[-95.9472472,41.2818874]}},{"type":"Feature","properties":{"CommunityPartner":"Lutheran Family Services","Address":"124 S 24th St Ste 100 Omaha NE","Legislative District Number":7,"Number of projects":0,"Income":56003,"County":"Douglas","Mission Area":"Economic Sufficiency","CommunityType":"Nonprofit","Campus Partner":"","Academic Year":"","Website":"http:\/\/lfsneb.org"},"geometry":{"type":"Point","coordinates":[-95.947304,41.2589708]}},{"type":"Feature","properties":{"CommunityPartner":"MAD DADS","Address":"3026 4th Avenue S. Minneapolis MN","Legislative District Number":0,"Number of projects":0,"Income":67989,"County":"Hennepin","Mission Area":"Social Justice","CommunityType":"Nonprofit","Campus Partner":"","Academic Year":"","Website":"http:\/\/www.maddads.com\/"},"geometry":{"type":"Point","coordinates":[-93.2707568,44.9474772]}},{"type":"Feature","properties":{"CommunityPartner":"Malcolm X Foundation","Address":"3448 Evans St Omaha NE","Legislative District Number":11,"Number of projects":0,"Income":56003,"County":"Douglas","Mission Area":"Social Justice","CommunityType":"Nonprofit","Campus Partner":"","Academic Year":"","Website":"http:\/\/malcolmxfoundation.org"},"geometry":{"type":"Point","coordinates":[-95.9644175,41.2910928]}},{"type":"Feature","properties":{"CommunityPartner":"Malcolm X Memorial Foundation","Address":"3448 Evans St Omaha NE","Legislative District Number":11,"Number of projects":0,"Income":56003,"County":"Douglas","Mission Area":"Educational Support","CommunityType":"Nonprofit","Campus Partner":"","Academic Year":"","Website":"http:\/\/malcolmxfoundation.org\/"},"geometry":{"type":"Point","coordinates":[-95.9644175,41.2910928]}},{"type":"Feature","properties":{"CommunityPartner":"Marconi Institute for Creativity","Address":"Via Celestini, 1 Sasso Marconi BO Italy","Legislative District Number":0,"Number of projects":0,"Income":0,"County":"","Mission Area":"Educational Support","CommunityType":"Nonprofit","Campus Partner":"","Academic Year":"","Website":"http:\/\/mic.fgm.it\/"},"geometry":{"type":"Point","coordinates":[11.2675705,44.4313976]}},{"type":"Feature","properties":{"CommunityPartner":"Marquis Place Assisted Living","Address":"20800 West Maple Road Elkhorn NE","Legislative District Number":39,"Number of projects":0,"Income":56003,"County":"Douglas","Mission Area":"Health and Wellness","CommunityType":"Nonprofit","Campus Partner":"","Academic Year":"","Website":"https:\/\/www.capitalsenior.com\/marquisplaceofelkhorn\/"},"geometry":{"type":"Point","coordinates":[-96.2421163,41.2923176]}},{"type":"Feature","properties":{"CommunityPartner":"Mayor's Commission for Citizens with Disabilities (MCCD)","Address":"1819 Farnam Street, Suite 300 Omaha NE","Legislative District Number":7,"Number of projects":0,"Income":56003,"County":"Douglas","Mission Area":"Educational Support","CommunityType":"Nonprofit","Campus Partner":"","Academic Year":"","Website":"https:\/\/humanrights.cityofomaha.org\/disabilities-comm-mccd"},"geometry":{"type":"Point","coordinates":[-95.9403931,41.2570498]}},{"type":"Feature","properties":{"CommunityPartner":"McGill University","Address":"845 Sherbrooke Street W Montreal Quebec","Legislative District Number":0,"Number of projects":0,"Income":0,"County":"","Mission Area":"Educational Support","CommunityType":"Higher Education Institution","Campus Partner":"","Academic Year":"","Website":"https:\/\/www.mcgill.ca\/"},"geometry":{"type":"Point","coordinates":[-73.5776415,45.5061666]}},{"type":"Feature","properties":{"CommunityPartner":"McMillan Middle School","Address":"3802 Redick Dr Omaha NE","Legislative District Number":13,"Number of projects":0,"Income":56003,"County":"Douglas","Mission Area":"Educational Support","CommunityType":"K-12","Campus Partner":"","Academic Year":"","Website":"http:\/\/mcmillan.ops.org"},"geometry":{"type":"Point","coordinates":[-95.9702163,41.3183174]}},{"type":"Feature","properties":{"CommunityPartner":"Mercy Housing","Address":"7262 Mercy Rd Omaha NE","Legislative District Number":20,"Number of projects":0,"Income":56003,"County":"Douglas","Mission Area":"Economic Sufficiency","CommunityType":"Nonprofit","Campus Partner":"","Academic Year":"","Website":"http:\/\/mercyhousing.org"},"geometry":{"type":"Point","coordinates":[-96.025805,41.2383182]}},{"type":"Feature","properties":{"CommunityPartner":"Metro Area Continuum of Care for the Homeless (MACCH)","Address":"6400 South, University Drive Road North Omaha NE","Legislative District Number":9,"Number of projects":0,"Income":56003,"County":"Douglas","Mission Area":"Economic Sufficiency","CommunityType":"Nonprofit","Campus Partner":"","Academic Year":"","Website":"http:\/\/www.endhomelessnesstoday.org\/index.html"},"geometry":{"type":"Point","coordinates":[-96.0107658,41.2578876]}},{"type":"Feature","properties":{"CommunityPartner":"Metro Transit Omaha","Address":"2222 Cuming Street Omaha NE","Legislative District Number":11,"Number of projects":0,"Income":56003,"County":"Douglas","Mission Area":"Environmental Stewardship","CommunityType":"Nonprofit","Campus Partner":"","Academic Year":"","Website":"http:\/\/www.ometro.com\/"},"geometry":{"type":"Point","coordinates":[-95.9454295,41.269065]}},{"type":"Feature","properties":{"CommunityPartner":"Metropolitan Area Planning Agency (MAPA)","Address":"2222 Cuming St Omaha NE","Legislative District Number":11,"Number of projects":0,"Income":56003,"County":"Douglas","Mission Area":"Environmental Stewardship","CommunityType":"Nonprofit","Campus Partner":"","Academic Year":"","Website":"http:\/\/mapacog.org\/"},"geometry":{"type":"Point","coordinates":[-95.9454295,41.269065]}},{"type":"Feature","properties":{"CommunityPartner":"Midland University","Address":"900 North Clarkson Fremont NE","Legislative District Number":15,"Number of projects":0,"Income":49830,"County":"Dodge","Mission Area":"Educational Support","CommunityType":"Higher Education Institution","Campus Partner":"","Academic Year":"","Website":"https:\/\/www.midlandu.edu\/"},"geometry":{"type":"Point","coordinates":[-96.4897867,41.437512]}},{"type":"Feature","properties":{"CommunityPartner":"Midlands Mentoring Partnership","Address":"115 S 49th Ave Omaha NE","Legislative District Number":8,"Number of projects":0,"Income":56003,"County":"Douglas","Mission Area":"Educational Support","CommunityType":"Nonprofit","Campus Partner":"","Academic Year":"","Website":"https:\/\/mmpomaha.org"},"geometry":{"type":"Point","coordinates":[-95.9885078,41.2584108]}},{"type":"Feature","properties":{"CommunityPartner":"Midlands Real Estate","Address":"11535 S 36th St Bellevue NE","Legislative District Number":3,"Number of projects":0,"Income":72269,"County":"Sarpy","Mission Area":"Economic Sufficiency","CommunityType":"Nonprofit","Campus Partner":"","Academic Year":"","Website":"https:\/\/midlandsrealestate.com"},"geometry":{"type":"Point","coordinates":[-95.9668392,41.137505]}},{"type":"Feature","properties":{"CommunityPartner":"Millard Public Schools","Address":"56065 147th St Omaha NE","Legislative District Number":4,"Number of projects":0,"Income":56003,"County":"Douglas","Mission Area":"Educational Support","CommunityType":"K-12","Campus Partner":"","Academic Year":"","Website":"http:\/\/mpsomaha.org"},"geometry":{"type":"Point","coordinates":[-96.1441733,41.2896567]}},{"type":"Feature","properties":{"CommunityPartner":"Mission Zero, Interface","Address":"2859 Paces Ferry Rd SE Atlanta GA","Legislative District Number":0,"Number of projects":0,"Income":68818,"County":"Cobb","Mission Area":"Environmental Stewardship","CommunityType":"Nonprofit","Campus Partner":"","Academic Year":"","Website":"http:\/\/www.interface.com\/EU\/en-GB\/about\/index\/Mission-Zero-en_GB"},"geometry":{"type":"Point","coordinates":[-84.4693563,33.8688619]}},{"type":"Feature","properties":{"CommunityPartner":"Mode Shift Omaha","Address":"6400 South, University Drive Road North Omaha NE","Legislative District Number":9,"Number of projects":0,"Income":56003,"County":"Douglas","Mission Area":"Environmental Stewardship","CommunityType":"Nonprofit","Campus Partner":"","Academic Year":"","Website":"https:\/\/modeshiftomaha.org\/"},"geometry":{"type":"Point","coordinates":[-96.0107658,41.2578876]}},{"type":"Feature","properties":{"CommunityPartner":"Monson & Holloway Law Office","Address":"108 Oak St Laurel NE","Legislative District Number":40,"Number of projects":0,"Income":54391,"County":"Cedar","Mission Area":"Social Justice","CommunityType":"Business","Campus Partner":"","Academic Year":"","Website":"http:\/\/www.monsonholloway.com"},"geometry":{"type":"Point","coordinates":[-97.0899975,42.4302367]}},{"type":"Feature","properties":{"CommunityPartner":"Morrissey Housing","Address":"4940 N 118th St Omaha NE","Legislative District Number":18,"Number of projects":0,"Income":56003,"County":"Douglas","Mission Area":"Environmental Stewardship","CommunityType":"Nonprofit","Campus Partner":"","Academic Year":"","Website":"http:\/\/www.morrisseyengineering.com\/contact"},"geometry":{"type":"Point","coordinates":[-96.0985174,41.3047829]}},{"type":"Feature","properties":{"CommunityPartner":"Mozilla Foundation","Address":"331 E Evelyn Ave Mountain View CA","Legislative District Number":0,"Number of projects":0,"Income":101173,"County":"Santa Clara","Mission Area":"Educational Support","CommunityType":"Nonprofit","Campus Partner":"","Academic Year":"","Website":"https:\/\/www.mozilla.org\/en-US\/"},"geometry":{"type":"Point","coordinates":[-122.060174,37.3873074]}},{"type":"Feature","properties":{"CommunityPartner":"National Council for the Social Studies","Address":"8555 16th St, Suite 500 Silver Spring MD","Legislative District Number":0,"Number of projects":0,"Income":100352,"County":"Montgomery","Mission Area":"Educational Support","CommunityType":"Nonprofit","Campus Partner":"","Academic Year":"","Website":"https:\/\/www.socialstudies.org\/"},"geometry":{"type":"Point","coordinates":[-77.0357066,38.9961477]}},{"type":"Feature","properties":{"CommunityPartner":"Nebraska 4-H","Address":"8015 W Center Rd Omaha NE","Legislative District Number":20,"Number of projects":0,"Income":56003,"County":"Douglas","Mission Area":"Educational Support","CommunityType":"Nonprofit","Campus Partner":"","Academic Year":"","Website":"https:\/\/extension.unl.edu\/statewide\/douglas-sarpy\/douglas-sarpy-4-h\/"},"geometry":{"type":"Point","coordinates":[-96.0369017,41.2335744]}},{"type":"Feature","properties":{"CommunityPartner":"Nebraska AIDS Project","Address":"250 S 77th St Omaha NE","Legislative District Number":6,"Number of projects":0,"Income":56003,"County":"Douglas","Mission Area":"Health and Wellness","CommunityType":"Nonprofit","Campus Partner":"","Academic Year":"","Website":"http:\/\/hap.org"},"geometry":{"type":"Point","coordinates":[-96.033222,41.2582834]}},{"type":"Feature","properties":{"CommunityPartner":"Nebraska Appleseed","Address":"826 P St 3rd Fl Lincoln NE","Legislative District Number":27,"Number of projects":0,"Income":53730,"County":"Lancaster","Mission Area":"Social Justice","CommunityType":"Nonprofit","Campus Partner":"","Academic Year":"","Website":"https:\/\/neappleseed.org\/"},"geometry":{"type":"Point","coordinates":[-96.7090704,40.8151228]}},{"type":"Feature","properties":{"CommunityPartner":"Nebraska Civic Engagement Table","Address":"211 N 14th St Lincoln NE","Legislative District Number":46,"Number of projects":0,"Income":53730,"County":"Lancaster","Mission Area":"Educational Support","CommunityType":"Nonprofit","Campus Partner":"","Academic Year":"","Website":"https:\/\/www.facebook.com\/nebraskatable\/"},"geometry":{"type":"Point","coordinates":[-96.7014213,40.8150799]}},{"type":"Feature","properties":{"CommunityPartner":"Nebraska Community Blood Bank","Address":"100 N. 84th Street Lincoln NE","Legislative District Number":26,"Number of projects":0,"Income":53730,"County":"Lancaster","Mission Area":"Health and Wellness","CommunityType":"Nonprofit","Campus Partner":"","Academic Year":"","Website":"https:\/\/www.ncbb.org\/"},"geometry":{"type":"Point","coordinates":[-96.6054426,40.8138601]}},{"type":"Feature","properties":{"CommunityPartner":"Nebraska Correctional Youth Facility","Address":"2610 N 20th St E Omaha NE","Legislative District Number":13,"Number of projects":0,"Income":56003,"County":"Douglas","Mission Area":"Social Justice","CommunityType":"Nonprofit","Campus Partner":"","Academic Year":"","Website":"http:\/\/corrections.nebraska.gov\/facilities\/Nebraska-correctional-youth-facility"},"geometry":{"type":"Point","coordinates":[-95.9064718,41.282255]}},{"type":"Feature","properties":{"CommunityPartner":"Nebraska Cultural Endowment","Address":"1004 Farnam Street, Plaza Level Omaha NE","Legislative District Number":7,"Number of projects":0,"Income":56003,"County":"Douglas","Mission Area":"Educational Support","CommunityType":"Nonprofit","Campus Partner":"","Academic Year":"","Website":"http:\/\/nebraskaculturalendowment.org\/"},"geometry":{"type":"Point","coordinates":[-95.9294959,41.2579241]}},{"type":"Feature","properties":{"CommunityPartner":"Nebraska Humane Society","Address":"8929 Fort Street Omaha NE","Legislative District Number":10,"Number of projects":0,"Income":56003,"County":"Douglas","Mission Area":"Environmental Stewardship","CommunityType":"Nonprofit","Campus Partner":"","Academic Year":"","Website":"http:\/\/www.nehumanesociety.org\/"},"geometry":{"type":"Point","coordinates":[-96.050668,41.30543]}},{"type":"Feature","properties":{"CommunityPartner":"Nebraska Interfaith Power & Lights","Address":"2012 S. 13th St. Lincoln NE","Legislative District Number":27,"Number of projects":0,"Income":53730,"County":"Lancaster","Mission Area":"Educational Support","CommunityType":"Government Agency","Campus Partner":"","Academic Year":"","Website":"https:\/\/www.nebraskaipl.org\/"},"geometry":{"type":"Point","coordinates":[-96.7024618,40.792332]}},{"type":"Feature","properties":{"CommunityPartner":"Nebraska Legislature","Address":"1445 K Street Lincoln NE","Legislative District Number":28,"Number of projects":0,"Income":53730,"County":"Lancaster","Mission Area":"Economic Sufficiency","CommunityType":"Nonprofit","Campus Partner":"","Academic Year":"","Website":"http:\/\/www.nebraskalegislature.gov\/"},"geometry":{"type":"Point","coordinates":[-96.6999471,40.8084912]}},{"type":"Feature","properties":{"CommunityPartner":"Nebraska Lutheran Outdoor Ministry","Address":"27416 Ranch Rd Ashland NE","Legislative District Number":2,"Number of projects":0,"Income":65385,"County":"Cass","Mission Area":"Educational Support","CommunityType":"Nonprofit","Campus Partner":"","Academic Year":"","Website":"https:\/\/www.nlom.org\/about-us"},"geometry":{"type":"Point","coordinates":[-96.3305025,41.0351249]}},{"type":"Feature","properties":{"CommunityPartner":"Nebraska Organ Recovery","Address":"8502 W Center Rd Omaha NE","Legislative District Number":20,"Number of projects":0,"Income":56003,"County":"Douglas","Mission Area":"Health and Wellness","CommunityType":"Nonprofit","Campus Partner":"","Academic Year":"","Website":"http:\/\/www.nedonation.org"},"geometry":{"type":"Point","coordinates":[-96.0452956,41.2348158]}},{"type":"Feature","properties":{"CommunityPartner":"Nebraska Shakespeare","Address":"2500 California Plaza - Creighton Univ- Dept. Of Fine Arts Omaha NE","Legislative District Number":7,"Number of projects":0,"Income":56003,"County":"Douglas","Mission Area":"Educational Support","CommunityType":"Nonprofit","Campus Partner":"","Academic Year":"","Website":"http:\/\/www.nebraskashakespeare.com\/home"},"geometry":{"type":"Point","coordinates":[-95.9454295,41.2643742]}},{"type":"Feature","properties":{"CommunityPartner":"Nebraska Wildlife Federation","Address":"4547 Calvert St # 12 Lincoln NE","Legislative District Number":29,"Number of projects":0,"Income":53730,"County":"Lancaster","Mission Area":"Environmental Stewardship","CommunityType":"Nonprofit","Campus Partner":"","Academic Year":"","Website":"http:\/\/www.nebraskawildlife.org\/"},"geometry":{"type":"Point","coordinates":[-96.6569424,40.7767782]}},{"type":"Feature","properties":{"CommunityPartner":"Nebraska Writers Collective (NWC)","Address":"9712 N 34th St Omaha NE","Legislative District Number":13,"Number of projects":0,"Income":56003,"County":"Douglas","Mission Area":"Educational Support","CommunityType":"Nonprofit","Campus Partner":"","Academic Year":"","Website":"http:\/\/newriters.org\/"},"geometry":{"type":"Point","coordinates":[-95.9718778,41.3487656]}},{"type":"Feature","properties":{"CommunityPartner":"Nebraskans for Peace","Address":"941 O St #1026, Lincoln NE","Legislative District Number":27,"Number of projects":0,"Income":53730,"County":"Lancaster","Mission Area":"Social Justice","CommunityType":"Nonprofit","Campus Partner":"","Academic Year":"","Website":"http:\/\/nebraskansforpeace.org\/"},"geometry":{"type":"Point","coordinates":[-96.7073437,40.8133759]}},{"type":"Feature","properties":{"CommunityPartner":"Nebraskans for Solar","Address":"5016 Parker St Omaha NE","Legislative District Number":8,"Number of projects":0,"Income":56003,"County":"Douglas","Mission Area":"Environmental Stewardship","CommunityType":"Nonprofit","Campus Partner":"","Academic Year":"","Website":"http:\/\/www.nebraskansforsolar.org\/"},"geometry":{"type":"Point","coordinates":[-95.9910038,41.2772363]}},{"type":"Feature","properties":{"CommunityPartner":"Nelson Mandela Elementary School","Address":"6316 N 30th St Omaha NE","Legislative District Number":11,"Number of projects":0,"Income":56003,"County":"Douglas","Mission Area":"Educational Support","CommunityType":"K-12","Campus Partner":"","Academic Year":"","Website":"http:\/\/nelsonmandelaelementary.org"},"geometry":{"type":"Point","coordinates":[-95.9576138,41.3163067]}},{"type":"Feature","properties":{"CommunityPartner":"No More Empty Pots","Address":"8511 N 30th St Omaha NE","Legislative District Number":13,"Number of projects":0,"Income":56003,"County":"Douglas","Mission Area":"Health and Wellness","CommunityType":"Nonprofit","Campus Partner":"","Academic Year":"","Website":"http:\/\/nmepomaha.org"},"geometry":{"type":"Point","coordinates":[-95.9604795,41.3376846]}},{"type":"Feature","properties":{"CommunityPartner":"Nonprofit Association of the Midlands (NAM)","Address":"11205 Wright Circle, Ste. 210 Omaha NE","Legislative District Number":20,"Number of projects":0,"Income":56003,"County":"Douglas","Mission Area":"Educational Support","CommunityType":"Nonprofit","Campus Partner":"","Academic Year":"","Website":"https:\/\/www.nonprofitam.org\/default.aspx"},"geometry":{"type":"Point","coordinates":[-96.08877,41.23303]}},{"type":"Feature","properties":{"CommunityPartner":"Nothing but Net","Address":"3223 N 45th St Omaha NE","Legislative District Number":11,"Number of projects":0,"Income":56003,"County":"Douglas","Mission Area":"Health and Wellness","CommunityType":"Nonprofit","Campus Partner":"","Academic Year":"","Website":"http:\/\/nothingbutnet1.org"},"geometry":{"type":"Point","coordinates":[-95.9805769,41.287989]}},{"type":"Feature","properties":{"CommunityPartner":"Omaha Area Youth Orchestra","Address":"1905 Harney St #630 Omaha NE","Legislative District Number":7,"Number of projects":0,"Income":56003,"County":"Douglas","Mission Area":"Educational Support","CommunityType":"Nonprofit","Campus Partner":"","Academic Year":"","Website":"http:\/\/oayo.org"},"geometry":{"type":"Point","coordinates":[-95.9412502,41.2563749]}},{"type":"Feature","properties":{"CommunityPartner":"Omaha BioFuels Coop","Address":"1127 N 20 St, Florence Blvd Omaha NE","Legislative District Number":11,"Number of projects":0,"Income":56003,"County":"Douglas","Mission Area":"Environmental Stewardship","CommunityType":"Nonprofit","Campus Partner":"","Academic Year":"","Website":"http:\/\/www.omahabiofuelscoop.org\/"},"geometry":{"type":"Point","coordinates":[-95.941705,41.271216]}},{"type":"Feature","properties":{"CommunityPartner":"Omaha Burke High School","Address":"12200 Burke Blvd Omaha NE","Legislative District Number":6,"Number of projects":0,"Income":56003,"County":"Douglas","Mission Area":"Educational Support","CommunityType":"K-12","Campus Partner":"","Academic Year":"","Website":"http:\/\/burke.ops.org"},"geometry":{"type":"Point","coordinates":[-96.1054316,41.2613329]}},{"type":"Feature","properties":{"CommunityPartner":"Omaha By Design","Address":"618 S 11th St Omaha NE","Legislative District Number":7,"Number of projects":0,"Income":56003,"County":"Douglas","Mission Area":"Economic Sufficiency","CommunityType":"Nonprofit","Campus Partner":"","Academic Year":"","Website":"http:\/\/www.omahabydesign.org\/"},"geometry":{"type":"Point","coordinates":[-95.9310534,41.2535721]}},{"type":"Feature","properties":{"CommunityPartner":"Omaha Girls Rock","Address":"6400 South, University Drive Road North Omaha NE","Legislative District Number":9,"Number of projects":0,"Income":56003,"County":"Douglas","Mission Area":"Educational Support","CommunityType":"Nonprofit","Campus Partner":"","Academic Year":"","Website":"https:\/\/www.omahagirlsrock.org\/"},"geometry":{"type":"Point","coordinates":[-96.0107658,41.2578876]}},{"type":"Feature","properties":{"CommunityPartner":"Omaha Healthy Kids Alliance","Address":"5006 Underwood Ave Omaha NE","Legislative District Number":8,"Number of projects":0,"Income":56003,"County":"Douglas","Mission Area":"","CommunityType":"","Campus Partner":"","Academic Year":"","Website":"http:\/\/omahahealthykids.org"},"geometry":{"type":"Point","coordinates":[-95.9909012,41.2651575]}},{"type":"Feature","properties":{"CommunityPartner":"Omaha Home for Boys","Address":"4343 N 52nd St Omaha NE","Legislative District Number":13,"Number of projects":0,"Income":56003,"County":"Douglas","Mission Area":"Social Justice","CommunityType":"Nonprofit","Campus Partner":"","Academic Year":"","Website":"http:\/\/omahahomeforboys.org"},"geometry":{"type":"Point","coordinates":[-95.991025,41.2981219]}},{"type":"Feature","properties":{"CommunityPartner":"Omaha Housing Authority","Address":"1805 Harney St Omaha NE","Legislative District Number":7,"Number of projects":0,"Income":56003,"County":"Douglas","Mission Area":"Economic Sufficiency","CommunityType":"Nonprofit","Campus Partner":"","Academic Year":"","Website":"http:\/\/ohauthority.org"},"geometry":{"type":"Point","coordinates":[-95.9401185,41.2563246]}},{"type":"Feature","properties":{"CommunityPartner":"Omaha Northwest Magnet High School","Address":"8204 Crown Point Ave Omaha NE","Legislative District Number":10,"Number of projects":0,"Income":56003,"County":"Douglas","Mission Area":"Educational Support","CommunityType":"K-12","Campus Partner":"","Academic Year":"","Website":"https:\/\/northwest.ops.org"},"geometry":{"type":"Point","coordinates":[-96.0406268,41.3144937]}},{"type":"Feature","properties":{"CommunityPartner":"Omaha Performing Arts","Address":"1200 Douglas St Omaha NE","Legislative District Number":7,"Number of projects":0,"Income":56003,"County":"Douglas","Mission Area":"Educational Support","CommunityType":"Nonprofit","Campus Partner":"","Academic Year":"","Website":"http:\/\/omahaperformingarts.org"},"geometry":{"type":"Point","coordinates":[-95.9326328,41.2591701]}},{"type":"Feature","properties":{"CommunityPartner":"Omaha Public Library (OPL)","Address":"215 S 15th St Omaha NE","Legislative District Number":7,"Number of projects":0,"Income":56003,"County":"Douglas","Mission Area":"Educational Support","CommunityType":"Nonprofit","Campus Partner":"","Academic Year":"","Website":"http:\/\/www.omahapubliclibrary.org\/"},"geometry":{"type":"Point","coordinates":[-95.9351094,41.2581041]}},{"type":"Feature","properties":{"CommunityPartner":"Omaha Stormwater","Address":"1399 Harney Street Omaha NE","Legislative District Number":7,"Number of projects":0,"Income":56003,"County":"Douglas","Mission Area":"Environmental Stewardship","CommunityType":"Nonprofit","Campus Partner":"","Academic Year":"","Website":"https:\/\/omahastormwater.org\/"},"geometry":{"type":"Point","coordinates":[-95.9344975,41.2565382]}},{"type":"Feature","properties":{"CommunityPartner":"Omaha Street School","Address":"3223 N 45th St Omaha NE","Legislative District Number":11,"Number of projects":0,"Income":56003,"County":"Douglas","Mission Area":"Educational Support","CommunityType":"K-12","Campus Partner":"","Academic Year":"","Website":"http:\/\/omahastreetschool.org"},"geometry":{"type":"Point","coordinates":[-95.9805769,41.287989]}},{"type":"Feature","properties":{"CommunityPartner":"Omaha Symphony","Address":"1905 Harney St #400 Omaha NE","Legislative District Number":7,"Number of projects":0,"Income":56003,"County":"Douglas","Mission Area":"Health and Wellness","CommunityType":"Nonprofit","Campus Partner":"","Academic Year":"","Website":"http:\/\/www.omahasymphony.org"},"geometry":{"type":"Point","coordinates":[-95.9412502,41.2563749]}},{"type":"Feature","properties":{"CommunityPartner":"Omaha Together One Community (OTOC)","Address":"3647 Lafayette Avenue Omaha NE","Legislative District Number":11,"Number of projects":0,"Income":56003,"County":"Douglas","Mission Area":"Educational Support","CommunityType":"Nonprofit","Campus Partner":"","Academic Year":"","Website":"http:\/\/otoc.org\/"},"geometry":{"type":"Point","coordinates":[-95.9684292,41.2706505]}},{"type":"Feature","properties":{"CommunityPartner":"ONE Omaha","Address":"6400 South, University Drive Road North Omaha NE","Legislative District Number":9,"Number of projects":0,"Income":56003,"County":"Douglas","Mission Area":"Educational Support","CommunityType":"Nonprofit","Campus Partner":"","Academic Year":"","Website":"http:\/\/oneomaha.org\/"},"geometry":{"type":"Point","coordinates":[-96.0107658,41.2578876]}},{"type":"Feature","properties":{"CommunityPartner":"One World Omaha","Address":"4920 S 30th St Omaha NE","Legislative District Number":5,"Number of projects":0,"Income":56003,"County":"Douglas","Mission Area":"Health and Wellness","CommunityType":"Nonprofit","Campus Partner":"","Academic Year":"","Website":"http:\/\/oneworldomaha.org"},"geometry":{"type":"Point","coordinates":[-95.9561635,41.2101026]}},{"type":"Feature","properties":{"CommunityPartner":"Open Door Mission","Address":"2828 N 23rd St Omaha NE","Legislative District Number":13,"Number of projects":0,"Income":53260,"County":"Pottawattamie","Mission Area":"Economic Sufficiency","CommunityType":"Nonprofit","Campus Partner":"","Academic Year":"","Website":"http:\/\/opendoormission.org"},"geometry":{"type":"Point","coordinates":[-95.901627,41.2843898]}},{"type":"Feature","properties":{"CommunityPartner":"Opera Omaha","Address":"1850 Farnam St Omaha NE","Legislative District Number":7,"Number of projects":0,"Income":56003,"County":"Douglas","Mission Area":"Educational Support","CommunityType":"Nonprofit","Campus Partner":"","Academic Year":"","Website":"http:\/\/operaomaha.org"},"geometry":{"type":"Point","coordinates":[-95.9405582,41.2579796]}},{"type":"Feature","properties":{"CommunityPartner":"Operation Youth Success (OYS)","Address":"6400 South, University Drive Road North Omaha NE","Legislative District Number":9,"Number of projects":0,"Income":56003,"County":"Douglas","Mission Area":"Social Justice","CommunityType":"Nonprofit","Campus Partner":"","Academic Year":"","Website":"http:\/\/operationyouthsuccess.org\/"},"geometry":{"type":"Point","coordinates":[-96.0107658,41.2578876]}},{"type":"Feature","properties":{"CommunityPartner":"Papillion Lavista Community Schools","Address":"420 S Washington St Papillion NE","Legislative District Number":14,"Number of projects":0,"Income":72269,"County":"Sarpy","Mission Area":"Educational Support","CommunityType":"K-12","Campus Partner":"","Academic Year":"","Website":"http:\/\/plcschools.org"},"geometry":{"type":"Point","coordinates":[-96.0438483,41.1530575]}},{"type":"Feature","properties":{"CommunityPartner":"Papillion LaVista Early Childhood Programs","Address":"1211 N Monroe St Papillion NE","Legislative District Number":14,"Number of projects":0,"Income":72269,"County":"Sarpy","Mission Area":"Educational Support","CommunityType":"K-12","Campus Partner":"","Academic Year":"","Website":"http:\/\/plcschools.org\/domain\/734"},"geometry":{"type":"Point","coordinates":[-96.0395893,41.1735255]}},{"type":"Feature","properties":{"CommunityPartner":"Papio-Missouri River NRD","Address":"8901 S 154th Street Omaha NE","Legislative District Number":49,"Number of projects":0,"Income":72269,"County":"Sarpy","Mission Area":"Environmental Stewardship","CommunityType":"Nonprofit","Campus Partner":"","Academic Year":"","Website":"https:\/\/www.papionrd.org\/"},"geometry":{"type":"Point","coordinates":[-96.1555592,41.170944]}},{"type":"Feature","properties":{"CommunityPartner":"Partnership 4 Kids (P4K)","Address":"1004 Farnam Street Suite 200 Omaha NE","Legislative District Number":7,"Number of projects":0,"Income":56003,"County":"Douglas","Mission Area":"Educational Support","CommunityType":"Nonprofit","Campus Partner":"","Academic Year":"","Website":"http:\/\/p4k.org\/"},"geometry":{"type":"Point","coordinates":[-95.9294959,41.2579241]}},{"type":"Feature","properties":{"CommunityPartner":"Pilgram Baptist","Address":"2501 Baptist St Omaha NE","Legislative District Number":11,"Number of projects":0,"Income":56003,"County":"Douglas","Mission Area":"International Service","CommunityType":"Nonprofit","Campus Partner":"","Academic Year":"","Website":"http:\/\/pilgrambc.org"},"geometry":{"type":"Point","coordinates":[-95.949006,41.2717544]}},{"type":"Feature","properties":{"CommunityPartner":"Planned Parenthood of the Heartland","Address":"3105 N 93rd Street Omaha NE","Legislative District Number":10,"Number of projects":0,"Income":56003,"County":"Douglas","Mission Area":"Health and Wellness","CommunityType":"Nonprofit","Campus Partner":"","Academic Year":"","Website":"https:\/\/www.plannedparenthood.org\/planned-parenthood-heartland"},"geometry":{"type":"Point","coordinates":[-96.0554277,41.2876402]}},{"type":"Feature","properties":{"CommunityPartner":"Project Hope","Address":"6201 N 60th Street Omaha NE","Legislative District Number":13,"Number of projects":0,"Income":56003,"County":"Douglas","Mission Area":"Economic Sufficiency","CommunityType":"Nonprofit","Campus Partner":"","Academic Year":"","Website":"http:\/\/www.projecthopeomaha.org\/"},"geometry":{"type":"Point","coordinates":[-96.0037302,41.316031]}},{"type":"Feature","properties":{"CommunityPartner":"Purdue University","Address":"610 Purdue Mall West Lafayette IN","Legislative District Number":0,"Number of projects":0,"Income":47406,"County":"Tippecanoe","Mission Area":"Educational Support","CommunityType":"Higher Education Institution","Campus Partner":"","Academic Year":"","Website":"http:\/\/www.purdue.edu\/"},"geometry":{"type":"Point","coordinates":[-86.9143911,40.428246]}},{"type":"Feature","properties":{"CommunityPartner":"QLI","Address":"6404 70th Plaza Omaha NE","Legislative District Number":13,"Number of projects":0,"Income":56003,"County":"Douglas","Mission Area":"Economic Sufficiency","CommunityType":"Nonprofit","Campus Partner":"","Academic Year":"","Website":"http:\/\/qliomaha.org"},"geometry":{"type":"Point","coordinates":[-96.0199577,41.316118]}},{"type":"Feature","properties":{"CommunityPartner":"Refugee Taskforce","Address":"5410 Corby Street Omaha NE","Legislative District Number":8,"Number of projects":0,"Income":56003,"County":"Douglas","Mission Area":"Social Justice","CommunityType":"Nonprofit","Campus Partner":"","Academic Year":"","Website":"http:\/\/bensonrefugeetf.com\/"},"geometry":{"type":"Point","coordinates":[-95.9982921,41.2844489]}},{"type":"Feature","properties":{"CommunityPartner":"Royale Oaks Assisted Living","Address":"4801 N 52nd St Omaha NE","Legislative District Number":13,"Number of projects":0,"Income":56003,"County":"Douglas","Mission Area":"Health and Wellness","CommunityType":"Nonprofit","Campus Partner":"","Academic Year":"","Website":"http:\/\/www.omahaseniorcare.org\/royale-oaks-assisted-living"},"geometry":{"type":"Point","coordinates":[-95.9937201,41.3028894]}},{"type":"Feature","properties":{"CommunityPartner":"Salvation Army","Address":"10755 Burt St Omaha NE","Legislative District Number":6,"Number of projects":0,"Income":56003,"County":"Douglas","Mission Area":"Economic Sufficiency","CommunityType":"Nonprofit","Campus Partner":"","Academic Year":"","Website":"https:\/\/centralusa.salvationarmy.org\/omaha"},"geometry":{"type":"Point","coordinates":[-96.0805378,41.2666609]}},{"type":"Feature","properties":{"CommunityPartner":"Salvation Army Wellspring","Address":"3612 Cuming Street Omaha NE","Legislative District Number":9,"Number of projects":0,"Income":56003,"County":"Douglas","Mission Area":"Economic Sufficiency","CommunityType":"Nonprofit","Campus Partner":"","Academic Year":"","Website":"https:\/\/centralusa.salvationarmy.org\/omaha\/wellspring\/"},"geometry":{"type":"Point","coordinates":[-95.9682678,41.2686459]}},{"type":"Feature","properties":{"CommunityPartner":"Salvation Army: North Corps","Address":"2424 Pratt Street Omaha NE","Legislative District Number":11,"Number of projects":0,"Income":56003,"County":"Douglas","Mission Area":"Economic Sufficiency","CommunityType":"Nonprofit","Campus Partner":"","Academic Year":"","Website":"https:\/\/centralusa.salvationarmy.org\/omaha"},"geometry":{"type":"Point","coordinates":[-95.9474938,41.2926411]}},{"type":"Feature","properties":{"CommunityPartner":"Salvation Army: Omaha Kroc Center","Address":"2825 Y Street Omaha NE","Legislative District Number":5,"Number of projects":0,"Income":56003,"County":"Douglas","Mission Area":"Economic Sufficiency","CommunityType":"Nonprofit","Campus Partner":"","Academic Year":"","Website":"http:\/\/www.omahakroc.org\/"},"geometry":{"type":"Point","coordinates":[-95.9558886,41.1974141]}},{"type":"Feature","properties":{"CommunityPartner":"Sam and Frances Fried Holocaust and Genocide Education Fund","Address":"6001 Dodge Street Omaha NE","Legislative District Number":9,"Number of projects":0,"Income":56003,"County":"Douglas","Mission Area":"Educational Support","CommunityType":"Nonprofit","Campus Partner":"","Academic Year":"","Website":"https:\/\/holocausteducationfund.org\/"},"geometry":{"type":"Point","coordinates":[-96.0107121,41.2581216]}},{"type":"Feature","properties":{"CommunityPartner":"Sarpy County Head Start","Address":"701 Olson Dr #111 Papillion NE","Legislative District Number":3,"Number of projects":0,"Income":72269,"County":"Sarpy","Mission Area":"Educational Support","CommunityType":"K-12","Campus Partner":"","Academic Year":"","Website":"http:\/\/sarpyheadstart.org"},"geometry":{"type":"Point","coordinates":[-96.0342907,41.138799]}},{"type":"Feature","properties":{"CommunityPartner":"Science Festival Alliance","Address":"265 Massachusetts Ave. Cambridge MA","Legislative District Number":0,"Number of projects":0,"Income":89019,"County":"Middlesex","Mission Area":"Educational Support","CommunityType":"Nonprofit","Campus Partner":"","Academic Year":"","Website":"https:\/\/sciencefestivals.org\/"},"geometry":{"type":"Point","coordinates":[-71.0975372,42.3622537]}},{"type":"Feature","properties":{"CommunityPartner":"Scottish Rite","Address":"202 S 20th St Omaha NE","Legislative District Number":7,"Number of projects":0,"Income":56003,"County":"Douglas","Mission Area":"Educational Support","CommunityType":"Nonprofit","Campus Partner":"","Academic Year":"","Website":"http:\/\/scottishriteomaha.org"},"geometry":{"type":"Point","coordinates":[-95.94287,41.2583295]}},{"type":"Feature","properties":{"CommunityPartner":"SCS ENGINEERS","Address":"14755 Grover St Omaha NE","Legislative District Number":31,"Number of projects":0,"Income":56003,"County":"Douglas","Mission Area":"Environmental Stewardship","CommunityType":"Nonprofit","Campus Partner":"","Academic Year":"","Website":"https:\/\/www.scsengineers.com\/"},"geometry":{"type":"Point","coordinates":[-96.1469094,41.228109]}},{"type":"Feature","properties":{"CommunityPartner":"Sierra Club Nebraska Chapter","Address":"140 N 8th St Lincoln NE","Legislative District Number":27,"Number of projects":0,"Income":53730,"County":"Lancaster","Mission Area":"Environmental Stewardship","CommunityType":"Nonprofit","Campus Partner":"","Academic Year":"","Website":"http:\/\/www.sierraclub.org\/nebraska"},"geometry":{"type":"Point","coordinates":[-96.7097258,40.8144576]}},{"type":"Feature","properties":{"CommunityPartner":"Social Media Research Foundation","Address":"Grand Street Redwood City CA","Legislative District Number":0,"Number of projects":0,"Income":98546,"County":"San Mateo","Mission Area":"Educational Support","CommunityType":"Nonprofit","Campus Partner":"","Academic Year":"","Website":"https:\/\/www.smrfoundation.org\/"},"geometry":{"type":"Point","coordinates":[-122.2368732,37.4791274]}},{"type":"Feature","properties":{"CommunityPartner":"South Omaha Boys and Girls Club","Address":"5051 S 22nd St Omaha NE","Legislative District Number":7,"Number of projects":0,"Income":56003,"County":"Douglas","Mission Area":"Educational Support","CommunityType":"Nonprofit","Campus Partner":"","Academic Year":"","Website":"http:\/\/bcgomaha.org"},"geometry":{"type":"Point","coordinates":[-95.943871,41.2069692]}},{"type":"Feature","properties":{"CommunityPartner":"Springville Elementary","Address":"7400 N 60th St Omaha NE","Legislative District Number":13,"Number of projects":0,"Income":56003,"County":"Douglas","Mission Area":"Educational Support","CommunityType":"K-12","Campus Partner":"","Academic Year":"","Website":"https:\/\/springville.ops.org"},"geometry":{"type":"Point","coordinates":[-96.0056527,41.325642]}},{"type":"Feature","properties":{"CommunityPartner":"Start Center","Address":"6825 Pine St Suite 144 Omaha NE","Legislative District Number":9,"Number of projects":0,"Income":56003,"County":"Douglas","Mission Area":"Economic Sufficiency","CommunityType":"Nonprofit","Campus Partner":"","Academic Year":"","Website":"http:\/\/startcenteromaha.org"},"geometry":{"type":"Point","coordinates":[-96.018216,41.2429994]}},{"type":"Feature","properties":{"CommunityPartner":"Suburban Rotary of Omaha","Address":"4089 S 84th St Pmb 317 Omaha NE","Legislative District Number":12,"Number of projects":0,"Income":56003,"County":"Douglas","Mission Area":"Educational Support","CommunityType":"Nonprofit","Campus Partner":"","Academic Year":"","Website":"http:\/\/www.suburbanrotary.org\/"},"geometry":{"type":"Point","coordinates":[-96.0423967,41.2202585]}},{"type":"Feature","properties":{"CommunityPartner":"Sump Memorial Library","Address":"222 N Jefferson St Papillion NE","Legislative District Number":14,"Number of projects":0,"Income":72269,"County":"Sarpy","Mission Area":"Educational Support","CommunityType":"Nonprofit","Campus Partner":"","Academic Year":"","Website":"http:\/\/www.papillion.org\/158\/Library"},"geometry":{"type":"Point","coordinates":[-96.0423596,41.1576785]}},{"type":"Feature","properties":{"CommunityPartner":"Susan G. Komen Great Plains","Address":"8707 W Center Rd #101 Omaha NE","Legislative District Number":20,"Number of projects":0,"Income":56003,"County":"Douglas","Mission Area":"Educational Support","CommunityType":"Nonprofit","Campus Partner":"","Academic Year":"","Website":"https:\/\/komengreatplains.org\/"},"geometry":{"type":"Point","coordinates":[-96.0491828,41.2339859]}},{"type":"Feature","properties":{"CommunityPartner":"The American Association of University Women (AAUW)","Address":"1310 L St. NW, Suite 1000 Washington DC","Legislative District Number":0,"Number of projects":0,"Income":72935,"County":"District of Columbia","Mission Area":"Social Justice","CommunityType":"Nonprofit","Campus Partner":"","Academic Year":"","Website":"https:\/\/www.aauw.org\/"},"geometry":{"type":"Point","coordinates":[-77.030449,38.9033233]}},{"type":"Feature","properties":{"CommunityPartner":"The Big Garden","Address":"5602 Read St Omaha NE","Legislative District Number":13,"Number of projects":0,"Income":56003,"County":"Douglas","Mission Area":"","CommunityType":"","Campus Partner":"","Academic Year":"","Website":"http:\/\/biggarden.org"},"geometry":{"type":"Point","coordinates":[-96.0002628,41.3232823]}},{"type":"Feature","properties":{"CommunityPartner":"The ENDEAVOR Project, Communication Service for the Deaf, Inc. (CSD)","Address":"2028 E Ben White Blvd, #240-5250 Austin TX","Legislative District Number":0,"Number of projects":0,"Income":64422,"County":"Travis","Mission Area":"Educational Support","CommunityType":"Nonprofit","Campus Partner":"","Academic Year":"","Website":"http:\/\/www.projectendeavor.com\/AboutUs.aspx"},"geometry":{"type":"Point","coordinates":[-97.74328,30.2171056]}},{"type":"Feature","properties":{"CommunityPartner":"The Hope Center","Address":"2200 N 20th St Omaha NE","Legislative District Number":11,"Number of projects":0,"Income":56003,"County":"Douglas","Mission Area":"Social Justice","CommunityType":"Nonprofit","Campus Partner":"","Academic Year":"","Website":"http:\/\/hopceenterforkids.org"},"geometry":{"type":"Point","coordinates":[-95.9427048,41.2796023]}},{"type":"Feature","properties":{"CommunityPartner":"The Indianapolis Museum of Art","Address":"4000 Michigan Rd Indianapolis IN","Legislative District Number":0,"Number of projects":0,"Income":43369,"County":"Marion","Mission Area":"Educational Support","CommunityType":"Nonprofit","Campus Partner":"","Academic Year":"","Website":"https:\/\/discovernewfields.org\/"},"geometry":{"type":"Point","coordinates":[-86.1857647,39.8260205]}},{"type":"Feature","properties":{"CommunityPartner":"The Set Me Free Project","Address":"6505 N 159th Avenue Cir Omaha NE","Legislative District Number":10,"Number of projects":0,"Income":56003,"County":"Douglas","Mission Area":"Social Justice","CommunityType":"Nonprofit","Campus Partner":"","Academic Year":"","Website":"https:\/\/www.setmefreeproject.net\/"},"geometry":{"type":"Point","coordinates":[-96.16492,41.3169414]}},{"type":"Feature","properties":{"CommunityPartner":"The Simple Foundation","Address":"3157 Farnam Street Ste. 7104 Omaha NE","Legislative District Number":9,"Number of projects":0,"Income":56003,"County":"Douglas","Mission Area":"Educational Support","CommunityType":"Nonprofit","Campus Partner":"","Academic Year":"","Website":"https:\/\/www.thesimplefoundation.org\/#homeheader"},"geometry":{"type":"Point","coordinates":[-95.9595223,41.2575188]}},{"type":"Feature","properties":{"CommunityPartner":"Together a Greater Good (TAGG)","Address":"17117 Oak Dr Suite A Omaha NE","Legislative District Number":31,"Number of projects":0,"Income":56003,"County":"Douglas","Mission Area":"Economic Sufficiency","CommunityType":"Nonprofit","Campus Partner":"","Academic Year":"","Website":"http:\/\/www.togetheragreatergood.com"},"geometry":{"type":"Point","coordinates":[-96.181454,41.2295033]}},{"type":"Feature","properties":{"CommunityPartner":"Tri-Faith Initiative","Address":"6400 South, University Drive Road North Omaha NE","Legislative District Number":9,"Number of projects":0,"Income":56003,"County":"Douglas","Mission Area":"Educational Support","CommunityType":"Nonprofit","Campus Partner":"","Academic Year":"","Website":"https:\/\/trifaith.org\/"},"geometry":{"type":"Point","coordinates":[-96.0107658,41.2578876]}},{"type":"Feature","properties":{"CommunityPartner":"Union for Contemporary Arts","Address":"2423 N 24th St Omaha NE","Legislative District Number":11,"Number of projects":0,"Income":56003,"County":"Douglas","Mission Area":"Educational Support","CommunityType":"Nonprofit","Campus Partner":"","Academic Year":"","Website":"http:\/\/www.u-ca.org\/"},"geometry":{"type":"Point","coordinates":[-95.94683,41.281237]}},{"type":"Feature","properties":{"CommunityPartner":"United States Holocaust Memorial Museum","Address":"100 Raoul Wallenberg Pl SW Washington DC","Legislative District Number":0,"Number of projects":0,"Income":72935,"County":"District of Columbia","Mission Area":"Educational Support","CommunityType":"Nonprofit","Campus Partner":"","Academic Year":"","Website":"https:\/\/www.ushmm.org\/research\/competitive-academic-programs\/faculty-seminars\/vectors-of-violence"},"geometry":{"type":"Point","coordinates":[-77.0326078,38.8867068]}},{"type":"Feature","properties":{"CommunityPartner":"University of Bern, Switzerland","Address":"Hochschulstrasse 6, 3012 Bern Switzerland","Legislative District Number":0,"Number of projects":0,"Income":0,"County":"","Mission Area":"Educational Support","CommunityType":"Higher Education Institution","Campus Partner":"","Academic Year":"","Website":"http:\/\/www.unibe.ch\/index_ger.html"},"geometry":{"type":"Point","coordinates":[7.4369512,46.9501841]}},{"type":"Feature","properties":{"CommunityPartner":"University of California Santa Cruz","Address":"1156 High St Santa Cruz CA","Legislative District Number":0,"Number of projects":0,"Income":70088,"County":"Santa Cruz","Mission Area":"Educational Support","CommunityType":"Higher Education Institution","Campus Partner":"","Academic Year":"","Website":"https:\/\/www.ucsc.edu\/"},"geometry":{"type":"Point","coordinates":[-122.0543109,36.9776276]}},{"type":"Feature","properties":{"CommunityPartner":"University of Colorado Boulder","Address":"2000 Colorado Ave Boulder CO","Legislative District Number":0,"Number of projects":0,"Income":72282,"County":"Boulder","Mission Area":"Educational Support","CommunityType":"Higher Education Institution","Campus Partner":"","Academic Year":"","Website":"https:\/\/www.colorado.edu\/"},"geometry":{"type":"Point","coordinates":[-105.2674788,40.007992]}},{"type":"Feature","properties":{"CommunityPartner":"University of Denver","Address":"1201 Larimer Street Denver CO","Legislative District Number":0,"Number of projects":0,"Income":56258,"County":"Denver","Mission Area":"Educational Support","CommunityType":"Higher Education Institution","Campus Partner":"","Academic Year":"","Website":"http:\/\/www.ucdenver.edu\/pages\/ucdwelcomepage.aspx"},"geometry":{"type":"Point","coordinates":[-105.0023241,39.7466611]}},{"type":"Feature","properties":{"CommunityPartner":"University of Haifa","Address":"199 Aba Khoushy Ave. Mount Carmel Haifa","Legislative District Number":0,"Number of projects":0,"Income":0,"County":"","Mission Area":"Educational Support","CommunityType":"Higher Education Institution","Campus Partner":"","Academic Year":"","Website":"https:\/\/www.haifa.ac.il\/index.php\/en\/home-eng"},"geometry":{"type":"Point","coordinates":[35.0195184,32.7614296]}},{"type":"Feature","properties":{"CommunityPartner":"University of Maine at Farmington","Address":"111 South Street Farmington ME","Legislative District Number":0,"Number of projects":0,"Income":43007,"County":"Franklin","Mission Area":"Educational Support","CommunityType":"Higher Education Institution","Campus Partner":"","Academic Year":"","Website":"http:\/\/www.umf.maine.edu\/"},"geometry":{"type":"Point","coordinates":[-70.1474394,44.66759]}},{"type":"Feature","properties":{"CommunityPartner":"University of Maryland","Address":"4296 Stadium Drive College Park MD","Legislative District Number":0,"Number of projects":0,"Income":75925,"County":"Prince George's","Mission Area":"Educational Support","CommunityType":"Higher Education Institution","Campus Partner":"","Academic Year":"","Website":"https:\/\/www.umd.edu\/"},"geometry":{"type":"Point","coordinates":[-76.9413781,38.9908687]}},{"type":"Feature","properties":{"CommunityPartner":"University of Nebraska Medical Center (UNMC)","Address":"42nd and Emile Omaha NE","Legislative District Number":9,"Number of projects":0,"Income":56003,"County":"Douglas","Mission Area":"Educational Support","CommunityType":"Higher Education Institution","Campus Partner":"","Academic Year":"","Website":"https:\/\/www.unmc.edu\/index.html"},"geometry":{"type":"Point","coordinates":[-95.975774,41.2542228]}},{"type":"Feature","properties":{"CommunityPartner":"University of Washington","Address":"1410 NE Campus Parkway Seattle WA","Legislative District Number":0,"Number of projects":0,"Income":78800,"County":"King","Mission Area":"Educational Support","CommunityType":"Higher Education Institution","Campus Partner":"","Academic Year":"","Website":"http:\/\/www.washington.edu"},"geometry":{"type":"Point","coordinates":[-122.3126853,47.6565701]}},{"type":"Feature","properties":{"CommunityPartner":"University of Waterloo","Address":"200 University Avenue West Waterloo Ontario","Legislative District Number":0,"Number of projects":0,"Income":0,"County":"","Mission Area":"Educational Support","CommunityType":"Higher Education Institution","Campus Partner":"","Academic Year":"","Website":"https:\/\/uwaterloo.ca\/"},"geometry":{"type":"Point","coordinates":[-80.5457825,43.4715909]}},{"type":"Feature","properties":{"CommunityPartner":"UNL Nebraska Extension","Address":"211 Agricultural Hall Lincoln NE","Legislative District Number":46,"Number of projects":0,"Income":53730,"County":"Lancaster","Mission Area":"Educational Support","CommunityType":"Higher Education Institution","Campus Partner":"","Academic Year":"","Website":"https:\/\/extension.unl.edu\/"},"geometry":{"type":"Point","coordinates":[-96.6694072,40.8291562]}},{"type":"Feature","properties":{"CommunityPartner":"Upstream Weeds","Address":"3942 N. 66th Street Omaha NE","Legislative District Number":13,"Number of projects":0,"Income":56003,"County":"Douglas","Mission Area":"Environmental Stewardship","CommunityType":"Nonprofit","Campus Partner":"","Academic Year":"","Website":"http:\/\/chris0350.wixsite.com\/upstream-weeds"},"geometry":{"type":"Point","coordinates":[-96.014558,41.2956233]}},{"type":"Feature","properties":{"CommunityPartner":"Urban Bird and Nature Alliance","Address":"627 S 67th Ave Omaha NE","Legislative District Number":9,"Number of projects":0,"Income":56003,"County":"Douglas","Mission Area":"Environmental Stewardship","CommunityType":"Nonprofit","Campus Partner":"","Academic Year":"","Website":"http:\/\/www.theurbanbirdandnaturealliance.com\/"},"geometry":{"type":"Point","coordinates":[-96.0168726,41.2535679]}},{"type":"Feature","properties":{"CommunityPartner":"Urban League of Nebraska","Address":"3040 Lake St Omaha NE","Legislative District Number":11,"Number of projects":0,"Income":56003,"County":"Douglas","Mission Area":"Social Justice","CommunityType":"Nonprofit","Campus Partner":"","Academic Year":"","Website":"http:\/\/www.urbanleagueneb.org\/"},"geometry":{"type":"Point","coordinates":[-95.957717,41.2819476]}},{"type":"Feature","properties":{"CommunityPartner":"Verdis Group","Address":"950 S. 10th St. #010 Omaha NE","Legislative District Number":7,"Number of projects":0,"Income":56003,"County":"Douglas","Mission Area":"Environmental Stewardship","CommunityType":"Business","Campus Partner":"","Academic Year":"","Website":"http:\/\/verdisgroup.com\/"},"geometry":{"type":"Point","coordinates":[-95.9301127,41.2503917]}},{"type":"Feature","properties":{"CommunityPartner":"Voices for Children in Nebraska","Address":"7521 Main St Ste. 103 Omaha NE","Legislative District Number":12,"Number of projects":0,"Income":56003,"County":"Douglas","Mission Area":"Social Justice","CommunityType":"Nonprofit","Campus Partner":"","Academic Year":"","Website":"http:\/\/voicesforchildren.com\/"},"geometry":{"type":"Point","coordinates":[-96.0283676,41.2012995]}},{"type":"Feature","properties":{"CommunityPartner":"Washington Elementary","Address":"5519 Mayberry St Omaha NE","Legislative District Number":9,"Number of projects":0,"Income":56003,"County":"Douglas","Mission Area":"Educational Support","CommunityType":"K-12","Campus Partner":"","Academic Year":"","Website":"http:\/\/washington.ops.org"},"geometry":{"type":"Point","coordinates":[-95.9991098,41.2502913]}},{"type":"Feature","properties":{"CommunityPartner":"Wells Fargo Foundation-Nebraska Region","Address":"10010 Regency Circle Omaha NE","Legislative District Number":6,"Number of projects":0,"Income":56003,"County":"Douglas","Mission Area":"Educational Support","CommunityType":"Nonprofit","Campus Partner":"","Academic Year":"","Website":"https:\/\/www.wellsfargo.com\/about\/corporate-responsibility\/environment\/"},"geometry":{"type":"Point","coordinates":[-96.0693505,41.2610851]}},{"type":"Feature","properties":{"CommunityPartner":"Western Carolina University","Address":"1 University Way Cullowhee NC","Legislative District Number":0,"Number of projects":0,"Income":40278,"County":"Jackson","Mission Area":"Educational Support","CommunityType":"Higher Education Institution","Campus Partner":"","Academic Year":"","Website":"https:\/\/www.wcu.edu\/"},"geometry":{"type":"Point","coordinates":[-83.1845641,35.3093963]}},{"type":"Feature","properties":{"CommunityPartner":"Westside Boys and Girls Club","Address":"1414 Robertson Dr. Omaha NE","Legislative District Number":6,"Number of projects":0,"Income":56003,"County":"Douglas","Mission Area":"Educational Support","CommunityType":"K-12","Campus Partner":"","Academic Year":"","Website":"https:\/\/bgcomaha.org\/"},"geometry":{"type":"Point","coordinates":[-96.0385142,41.2723118]}},{"type":"Feature","properties":{"CommunityPartner":"Westside School District","Address":"909 S 76th St Omaha NE","Legislative District Number":6,"Number of projects":0,"Income":56003,"County":"Douglas","Mission Area":"Educational Support","CommunityType":"Nonprofit","Campus Partner":"","Academic Year":"","Website":"http:\/\/westside66.org"},"geometry":{"type":"Point","coordinates":[-96.0309733,41.250171]}},{"type":"Feature","properties":{"CommunityPartner":"WhyArts? Inc.","Address":"1030 S 111th Plz Omaha NE","Legislative District Number":6,"Number of projects":0,"Income":56003,"County":"Douglas","Mission Area":"Educational Support","CommunityType":"Nonprofit","Campus Partner":"","Academic Year":"","Website":"http:\/\/www.whyartsinc.org\/"},"geometry":{"type":"Point","coordinates":[-96.0878265,41.2506179]}},{"type":"Feature","properties":{"CommunityPartner":"Wichita State University (WSU) Environmental Finance Center","Address":"1845 Fairmount Street Wichita KS","Legislative District Number":0,"Number of projects":0,"Income":51157,"County":"Sedgwick","Mission Area":"Economic Sufficiency","CommunityType":"Higher Education Institution","Campus Partner":"","Academic Year":"","Website":"http:\/\/www.wichita.edu\/thisis\/home\/?u=EFC"},"geometry":{"type":"Point","coordinates":[-97.2944825,37.7179558]}},{"type":"Feature","properties":{"CommunityPartner":"Women's Center for Advancement (WCA)","Address":"222 S 29th St Omaha NE","Legislative District Number":9,"Number of projects":0,"Income":56003,"County":"Douglas","Mission Area":"Social Justice","CommunityType":"Nonprofit","Campus Partner":"","Academic Year":"","Website":"http:\/\/wcaomaha.org"},"geometry":{"type":"Point","coordinates":[-95.9551111,41.2581658]}},{"type":"Feature","properties":{"CommunityPartner":"Womens Fund of Greater Omaha","Address":"1111 N 13th St Ste 106 Omaha NE","Legislative District Number":11,"Number of projects":0,"Income":56003,"County":"Douglas","Mission Area":"Educational Support","CommunityType":"Nonprofit","Campus Partner":"","Academic Year":"","Website":"http:\/\/www.omahawomensfund.org\/"},"geometry":{"type":"Point","coordinates":[-95.9326328,41.2723048]}},{"type":"Feature","properties":{"CommunityPartner":"Wragge's Adaptive Swimming Lessons","Address":"14439 Weir Circle Omaha NE","Legislative District Number":31,"Number of projects":0,"Income":56003,"County":"Douglas","Mission Area":"Health and Wellness","CommunityType":"Nonprofit","Campus Partner":"","Academic Year":"","Website":"http:\/\/www.mpsomaha.org"},"geometry":{"type":"Point","coordinates":[-96.1406444,41.2062398]}},{"type":"Feature","properties":{"CommunityPartner":"Youth Emergency Services (YES)","Address":"2679 Farnam St Ste 205 Omaha NE","Legislative District Number":7,"Number of projects":0,"Income":56003,"County":"Douglas","Mission Area":"Social Justice","CommunityType":"Nonprofit","Campus Partner":"","Academic Year":"","Website":"http:\/\/www.yesomaha.org\/"},"geometry":{"type":"Point","coordinates":[-95.9519528,41.2573912]}}]}