{"type":"FeatureCollection","features":[{"type":"Feature","properties":{"CommunityPartner":"Boys Town Day School","Address":"14124 Norton Dr Boys Town NE","Legislative District Number":4,"Number of projects":0,"Income":56003,"County":"Douglas","Mission Area":"Educational Support","CommunityType":"K-12","Campus Partner":"","Academic Year":"","Website":""},"geometry":{"type":"Point","coordinates":[-96.1335489,41.2605699]}},{"type":"Feature","properties":{"CommunityPartner":"Brigit Saint Brigit Theatre Company (BSB)","Address":"421 S 36th Street Omaha NE","Legislative District Number":9,"Number of projects":0,"Income":56003,"County":"Douglas","Mission Area":"Educational Support","CommunityType":"Nonprofit","Campus Partner":"","Academic Year":"","Website":"https:\/\/www.bsbtheatre.com\/"},"geometry":{"type":"Point","coordinates":[-95.9656595,41.2563557]}},{"type":"Feature","properties":{"CommunityPartner":"Brownell Talbot","Address":"400 N Happy Hollow Blvd Omaha NE","Legislative District Number":8,"Number of projects":0,"Income":56003,"County":"Douglas","Mission Area":"Educational Support","CommunityType":"K-12","Campus Partner":"","Academic Year":"","Website":""},"geometry":{"type":"Point","coordinates":[-95.998492,41.26359]}},{"type":"Feature","properties":{"CommunityPartner":"75 North","Address":"2112 North 30th Street Omaha NE","Legislative District Number":11,"Number of projects":1,"Income":56003,"County":"Douglas","Mission Area":"Economic Sufficiency","CommunityType":"Nonprofit","Campus Partner":["Service Learning Academy (SLA)"],"Academic Year":["2016-17"],"Website":"http:\/\/www.seventyfivenorth.org\/about-75-north\/"},"geometry":{"type":"Point","coordinates":[-95.9574278,41.2789997]}},{"type":"Feature","properties":{"CommunityPartner":"A Time to Heal (ATTH)","Address":"6400 South, University Drive Road North Omaha NE","Legislative District Number":9,"Number of projects":2,"Income":56003,"County":"Douglas","Mission Area":"Health and Wellness","CommunityType":"Nonprofit","Campus Partner":["Office of Civic and Social Responsibility (CSR)","Service Learning Academy (SLA)"],"Academic Year":["2016-17"],"Website":"http:\/\/atimetohealfoundation.org\/"},"geometry":{"type":"Point","coordinates":[-96.0107658,41.2578876]}},{"type":"Feature","properties":{"CommunityPartner":"AARP","Address":"1941 S 42nd St Omaha NE","Legislative District Number":9,"Number of projects":0,"Income":56003,"County":"Douglas","Mission Area":"Health and Wellness","CommunityType":"Nonprofit","Campus Partner":"","Academic Year":"","Website":"http:\/\/local.aarp.org\/omahane"},"geometry":{"type":"Point","coordinates":[-95.9751614,41.2406269]}},{"type":"Feature","properties":{"CommunityPartner":"Abide Network","Address":"3223 N 45th St Omaha NE","Legislative District Number":11,"Number of projects":2,"Income":56003,"County":"Douglas","Mission Area":"Economic Sufficiency","CommunityType":"Nonprofit","Campus Partner":["Office of Civic and Social Responsibility (CSR)"],"Academic Year":["2016-17"],"Website":"http:\/\/www.abideomaha.org"},"geometry":{"type":"Point","coordinates":[-95.9805769,41.287989]}},{"type":"Feature","properties":{"CommunityPartner":"Aksarben Senior Center","Address":"1330 S 70th st Omaha NE","Legislative District Number":9,"Number of projects":0,"Income":56003,"County":"Douglas","Mission Area":"Health and Wellness","CommunityType":"Nonprofit","Campus Partner":"","Academic Year":"","Website":"http:\/\/aksarbenseniorliving.com"},"geometry":{"type":"Point","coordinates":[-96.0210058,41.2524191]}},{"type":"Feature","properties":{"CommunityPartner":"Aksarben-Elmwood Neighborhood Association","Address":"1500 S 60th Street Omaha NE","Legislative District Number":9,"Number of projects":1,"Income":56003,"County":"Douglas","Mission Area":"Social Justice","CommunityType":"Nonprofit","Campus Partner":["Office of Civic and Social Responsibility (CSR)"],"Academic Year":["2017-18"],"Website":"https:\/\/aepna.org\/"},"geometry":{"type":"Point","coordinates":[-96.0047507,41.2453568]}},{"type":"Feature","properties":{"CommunityPartner":"Alliance for a Better Omaha","Address":"10525 J St. Omaha NE","Legislative District Number":12,"Number of projects":1,"Income":56003,"County":"Douglas","Mission Area":"Economic Sufficiency","CommunityType":"Nonprofit","Campus Partner":["Service Learning Academy (SLA)"],"Academic Year":["2016-17"],"Website":"http:\/\/togetheromaha.org"},"geometry":{"type":"Point","coordinates":[-96.0780051,41.2137282]}},{"type":"Feature","properties":{"CommunityPartner":"Alzheimer's Association, Nebraska Chapter","Address":"11711 Arbor St #110 Omaha NE","Legislative District Number":20,"Number of projects":1,"Income":56003,"County":"Douglas","Mission Area":"Health and Wellness","CommunityType":"Nonprofit","Campus Partner":["Gerontology, Department of"],"Academic Year":["2016-17"],"Website":"https:\/\/www.alz.org\/nebraska\/"},"geometry":{"type":"Point","coordinates":[-96.096377,41.235583]}},{"type":"Feature","properties":{"CommunityPartner":"American Cancer Society: Hope Lodge","Address":"8030 Farnam Drive Omaha NE","Legislative District Number":6,"Number of projects":1,"Income":56003,"County":"Douglas","Mission Area":"Health and Wellness","CommunityType":"Nonprofit","Campus Partner":["Office of Civic and Social Responsibility (CSR)"],"Academic Year":["2017-18"],"Website":"https:\/\/www.cancer.org\/treatment\/support-programs-and-services\/patient-lodging\/hope-lodge\/omaha.html"},"geometry":{"type":"Point","coordinates":[-96.0386796,41.25917]}},{"type":"Feature","properties":{"CommunityPartner":"American Legion 373","Address":"7380 Q Street Ralston NE","Legislative District Number":12,"Number of projects":1,"Income":56003,"County":"Douglas","Mission Area":"Health and Wellness","CommunityType":"Nonprofit","Campus Partner":["Office of Civic and Social Responsibility (CSR)"],"Academic Year":["2016-17"],"Website":"https:\/\/centennial.legion.org\/nebraska\/post373"},"geometry":{"type":"Point","coordinates":[-96.0267688,41.2058612]}},{"type":"Feature","properties":{"CommunityPartner":"American Lung Association in Nebraska","Address":"11225 Davenport Street #101 Omaha NE","Legislative District Number":6,"Number of projects":1,"Income":56003,"County":"Douglas","Mission Area":"Health and Wellness","CommunityType":"Nonprofit","Campus Partner":["Volunteer Program Assessment-UNO (VPA-UNO)"],"Academic Year":["2016-17"],"Website":"https:\/\/www.lung.org\/about-us\/local-associations\/nebraska.html"},"geometry":{"type":"Point","coordinates":[-96.0873385,41.2604741]}},{"type":"Feature","properties":{"CommunityPartner":"American Red Cross","Address":"2912 S 80th Ave Omaha NE","Legislative District Number":20,"Number of projects":2,"Income":56003,"County":"Douglas","Mission Area":"Health and Wellness","CommunityType":"Nonprofit","Campus Partner":["Office of Civic and Social Responsibility (CSR)","Maverick Food Pantry"],"Academic Year":["2017-18","2016-17"],"Website":"https:\/\/www.redcross.org\/donate\/disaster-donations.html\/"},"geometry":{"type":"Point","coordinates":[-96.0393604,41.232345]}},{"type":"Feature","properties":{"CommunityPartner":"Apostle Nursing Home Health Care","Address":"14511 Borman St Omaha NE","Legislative District Number":49,"Number of projects":0,"Income":72269,"County":"Sarpy","Mission Area":"Health and Wellness","CommunityType":"Nonprofit","Campus Partner":"","Academic Year":"","Website":"http:\/\/www.spenddownnebraska.com\/"},"geometry":{"type":"Point","coordinates":[-96.1411214,41.1880613]}},{"type":"Feature","properties":{"CommunityPartner":"Arts for All","Address":"4411 S 24th St Omaha NE","Legislative District Number":7,"Number of projects":0,"Income":56003,"County":"Douglas","Mission Area":"Educational Support","CommunityType":"Nonprofit","Campus Partner":"","Academic Year":"","Website":"http:\/\/www.artsforallomaha.org"},"geometry":{"type":"Point","coordinates":[-95.9466055,41.215742]}},{"type":"Feature","properties":{"CommunityPartner":"Autism Society of NE","Address":"9012 Q St. Omaha NE","Legislative District Number":12,"Number of projects":0,"Income":56003,"County":"Douglas","Mission Area":"Health and Wellness","CommunityType":"Nonprofit","Campus Partner":"","Academic Year":"","Website":"http:\/\/autismcenterfornebraska.org"},"geometry":{"type":"Point","coordinates":[-96.0534321,41.2063067]}},{"type":"Feature","properties":{"CommunityPartner":"Avenue Scholars Foundation","Address":"7101 Mercy Rd Ste 240 Omaha NE","Legislative District Number":9,"Number of projects":1,"Income":56003,"County":"Douglas","Mission Area":"Educational Support","CommunityType":"Nonprofit","Campus Partner":["Support and Training for the Evaluation of Programs (STEPs)"],"Academic Year":["2016-17"],"Website":"http:\/\/www.avescholars.org\/"},"geometry":{"type":"Point","coordinates":[-96.0218413,41.2372233]}},{"type":"Feature","properties":{"CommunityPartner":"Bard College","Address":"30 Campus Rd Annandale-On-Hudson NY","Legislative District Number":0,"Number of projects":1,"Income":72706,"County":"Dutchess","Mission Area":"Educational Support","CommunityType":"Higher Education Institution","Campus Partner":["Sustainability, Office of"],"Academic Year":["2016-17"],"Website":"http:\/\/www.bard.edu\/"},"geometry":{"type":"Point","coordinates":[-73.916647,42.0208225]}},{"type":"Feature","properties":{"CommunityPartner":"Bemis Center for Contemporary Arts","Address":"724 S 12th St Omaha NE","Legislative District Number":7,"Number of projects":0,"Income":56003,"County":"Douglas","Mission Area":"Educational Support","CommunityType":"Nonprofit","Campus Partner":"","Academic Year":"","Website":"http:\/\/www.bemiscenter.org\/"},"geometry":{"type":"Point","coordinates":[-95.93232,41.2526171]}},{"type":"Feature","properties":{"CommunityPartner":"Bennington Elementary School","Address":"11620 N 156th St Bennington NE","Legislative District Number":10,"Number of projects":0,"Income":56003,"County":"Douglas","Mission Area":"Educational Support","CommunityType":"K-12","Campus Partner":"","Academic Year":"","Website":"http:\/\/www.benningtonschools.org"},"geometry":{"type":"Point","coordinates":[-96.1594097,41.3655143]}},{"type":"Feature","properties":{"CommunityPartner":"Benson Area Refugee Taskforce (BART)","Address":"5410 Corby Street Omaha NE","Legislative District Number":8,"Number of projects":0,"Income":56003,"County":"Douglas","Mission Area":"International Service","CommunityType":"Nonprofit","Campus Partner":"","Academic Year":"","Website":"http:\/\/www.bensonrefugeetf.com\/"},"geometry":{"type":"Point","coordinates":[-95.9982921,41.2844489]}},{"type":"Feature","properties":{"CommunityPartner":"Benson Plant Rescue","Address":"7224 Maple Street Omaha NE","Legislative District Number":8,"Number of projects":3,"Income":56003,"County":"Douglas","Mission Area":"Environmental Stewardship","CommunityType":"Nonprofit","Campus Partner":["Office of Civic and Social Responsibility (CSR)"],"Academic Year":["2017-18","2016-17"],"Website":"https:\/\/www.facebook.com\/BensonPlantRescue\/"},"geometry":{"type":"Point","coordinates":[-96.0249873,41.2852593]}},{"type":"Feature","properties":{"CommunityPartner":"Bergan Mercy Hospital","Address":"7500 Mercy Rd Omaha NE","Legislative District Number":20,"Number of projects":1,"Income":56003,"County":"Douglas","Mission Area":"Health and Wellness","CommunityType":"Nonprofit","Campus Partner":["Music, School of"],"Academic Year":["2016-17"],"Website":"https:\/\/www.chihealth.com\/en\/location-search\/creighton-bergan.html"},"geometry":{"type":"Point","coordinates":[-96.0307467,41.2393534]}},{"type":"Feature","properties":{"CommunityPartner":"Beveridge Magnet Middle School","Address":"1616 S 120th St Omaha NE","Legislative District Number":20,"Number of projects":3,"Income":56003,"County":"Douglas","Mission Area":"Educational Support","CommunityType":"K-12","Campus Partner":["Service Learning Academy (SLA)","Chinese Student Scholars Association"],"Academic Year":["2017-18","2016-17"],"Website":"http:\/\/beveridge.ops.org"},"geometry":{"type":"Point","coordinates":[-96.1023882,41.242597]}},{"type":"Feature","properties":{"CommunityPartner":"Blue Valley Community Action, Inc","Address":"620 5th St Fairbury NE","Legislative District Number":32,"Number of projects":1,"Income":44616,"County":"Jefferson","Mission Area":"Social Justice","CommunityType":"Nonprofit","Campus Partner":["Psychology, Department of"],"Academic Year":["2017-18"],"Website":"http:\/\/www.bvca.net"},"geometry":{"type":"Point","coordinates":[-97.1776183,40.135964]}},{"type":"Feature","properties":{"CommunityPartner":"Boys and Girls Club of Council Bluffs","Address":"815 N 16th St Council Bluffs IA","Legislative District Number":0,"Number of projects":0,"Income":53260,"County":"Pottawattamie","Mission Area":"Educational Support","CommunityType":"Nonprofit","Campus Partner":"","Academic Year":"","Website":"http:\/\/bgcomaha.org\/locations\/council-bluffs\/"},"geometry":{"type":"Point","coordinates":[-95.8664211,41.2695283]}},{"type":"Feature","properties":{"CommunityPartner":"Boys and Girls Club of the Midlands","Address":"2610 Hamilton St Omaha NE","Legislative District Number":11,"Number of projects":4,"Income":56003,"County":"Douglas","Mission Area":"Educational Support","CommunityType":"Nonprofit","Campus Partner":["Office of Civic and Social Responsibility (CSR)","Service Learning Academy (SLA)","Psychology, Department of"],"Academic Year":["2017-18","2016-17"],"Website":"http:\/\/www.bgcomaha.org\/"},"geometry":{"type":"Point","coordinates":[-95.9506217,41.2738859]}},{"type":"Feature","properties":{"CommunityPartner":"Buford Foundation","Address":"13303 F St Omaha NE","Legislative District Number":20,"Number of projects":0,"Income":56003,"County":"Douglas","Mission Area":"Educational Support","CommunityType":"Nonprofit","Campus Partner":"","Academic Year":"","Website":"https:\/\/campconfidence.org\/"},"geometry":{"type":"Point","coordinates":[-96.1225471,41.2190264]}},{"type":"Feature","properties":{"CommunityPartner":"Butte Humane Society","Address":"2580 Fair St Chico CA","Legislative District Number":0,"Number of projects":1,"Income":44366,"County":"Butte","Mission Area":"Environmental Stewardship","CommunityType":"Nonprofit","Campus Partner":["Volunteer Program Assessment-UNO (VPA-UNO)"],"Academic Year":["2016-17"],"Website":""},"geometry":{"type":"Point","coordinates":[-121.8110819,39.7126278]}},{"type":"Feature","properties":{"CommunityPartner":"Calvary Omaha","Address":"1010 S 144th St Omaha NE","Legislative District Number":4,"Number of projects":1,"Income":56003,"County":"Douglas","Mission Area":"Educational Support","CommunityType":"Nonprofit","Campus Partner":["Volunteer Program Assessment-UNO (VPA-UNO)"],"Academic Year":["2016-17"],"Website":""},"geometry":{"type":"Point","coordinates":[-96.1402724,41.2507089]}},{"type":"Feature","properties":{"CommunityPartner":"Campus Compact for the Great Plains","Address":"45 Temple Place Boston MA","Legislative District Number":0,"Number of projects":2,"Income":57439,"County":"Suffolk","Mission Area":"Educational Support","CommunityType":"Nonprofit","Campus Partner":["Office of Civic and Social Responsibility (CSR)","Lambda Theta Nu"],"Academic Year":["2017-18"],"Website":"http:\/\/greatplains.compact.org\/"},"geometry":{"type":"Point","coordinates":[-71.0619177,42.3548993]}},{"type":"Feature","properties":{"CommunityPartner":"Catholic Charities - Phoenix House","Address":"300 W Broadway # 2223 Council Bluffs IA","Legislative District Number":0,"Number of projects":6,"Income":53260,"County":"Pottawattamie","Mission Area":"Health and Wellness","CommunityType":"Nonprofit","Campus Partner":["Office of Civic and Social Responsibility (CSR)"],"Academic Year":["2017-18","2016-17"],"Website":""},"geometry":{"type":"Point","coordinates":[-95.8478281,41.2622041]}},{"type":"Feature","properties":{"CommunityPartner":"Chabad-Lubavitch of Nebraska Inc.","Address":"1866 S 120th Street Omaha NE","Legislative District Number":20,"Number of projects":2,"Income":56003,"County":"Douglas","Mission Area":"Social Justice","CommunityType":"Nonprofit","Campus Partner":["Office of Civic and Social Responsibility (CSR)"],"Academic Year":["2017-18","2016-17"],"Website":""},"geometry":{"type":"Point","coordinates":[-96.1010715,41.240674]}},{"type":"Feature","properties":{"CommunityPartner":"Charles Drew Health Center","Address":"2915 Grant St Omaha NE","Legislative District Number":11,"Number of projects":2,"Income":56003,"County":"Douglas","Mission Area":"Health and Wellness","CommunityType":"Nonprofit","Campus Partner":["Religious Studies, Department of","Sigma Lambda Beta"],"Academic Year":["2017-18","2016-17"],"Website":""},"geometry":{"type":"Point","coordinates":[-95.9562782,41.279539]}},{"type":"Feature","properties":{"CommunityPartner":"Childrens Scholarship Fund of Omaha","Address":"7101 Mercy Rd Ste 305 Omaha NE","Legislative District Number":9,"Number of projects":1,"Income":56003,"County":"Douglas","Mission Area":"Educational Support","CommunityType":"Nonprofit","Campus Partner":["Support and Training for the Evaluation of Programs (STEPs)"],"Academic Year":["2016-17"],"Website":""},"geometry":{"type":"Point","coordinates":[-96.0218413,41.2372233]}},{"type":"Feature","properties":{"CommunityPartner":"Citizen\u0092s Climate Lobby","Address":"1330 Orange Ave # 300 Coronado CA","Legislative District Number":0,"Number of projects":0,"Income":66529,"County":"San Diego","Mission Area":"Educational Support","CommunityType":"Nonprofit","Campus Partner":"","Academic Year":"","Website":"https:\/\/citizensclimatelobby.org\/chapters\/NE_Omaha\/"},"geometry":{"type":"Point","coordinates":[-117.1787619,32.6826727]}},{"type":"Feature","properties":{"CommunityPartner":"City of Omaha","Address":"1819 Farnam Street Omaha NE","Legislative District Number":7,"Number of projects":1,"Income":56003,"County":"Douglas","Mission Area":"Economic Sufficiency","CommunityType":"Government Agency","Campus Partner":["Honors Program"],"Academic Year":["2017-18"],"Website":"https:\/\/www.cityofomaha.org\/"},"geometry":{"type":"Point","coordinates":[-95.9403931,41.2570498]}},{"type":"Feature","properties":{"CommunityPartner":"City of Omaha: Mandan Park","Address":"6215 South 13th Street Omaha NE","Legislative District Number":7,"Number of projects":0,"Income":56003,"County":"Douglas","Mission Area":"Environmental Stewardship","CommunityType":"Nonprofit","Campus Partner":"","Academic Year":"","Website":"http:\/\/parks.cityofomaha.org\/contact"},"geometry":{"type":"Point","coordinates":[-95.930362,41.1913174]}},{"type":"Feature","properties":{"CommunityPartner":"City Sprouts","Address":"4002 Seward St Omaha NE","Legislative District Number":11,"Number of projects":2,"Income":56003,"County":"Douglas","Mission Area":"Environmental Stewardship","CommunityType":"Nonprofit","Campus Partner":["Service Learning Academy (SLA)"],"Academic Year":["2016-17"],"Website":"http:\/\/omahasprouts.org"},"geometry":{"type":"Point","coordinates":[-95.9729104,41.274268]}},{"type":"Feature","properties":{"CommunityPartner":"Civic Nebraska","Address":"1327 H St Ste. 102 Lincoln NE","Legislative District Number":28,"Number of projects":3,"Income":53730,"County":"Lancaster","Mission Area":"Educational Support","CommunityType":"Nonprofit","Campus Partner":["Office of Civic and Social Responsibility (CSR)","Barbara Weitz Community Engagement Center (CEC)"],"Academic Year":["2017-18","2016-17"],"Website":"http:\/\/nereform.org\/"},"geometry":{"type":"Point","coordinates":[-96.7018693,40.8066471]}},{"type":"Feature","properties":{"CommunityPartner":"Claremont School of Theology","Address":"1325 N College Ave Claremont CA","Legislative District Number":0,"Number of projects":0,"Income":57952,"County":"Los Angeles","Mission Area":"Educational Support","CommunityType":"Higher Education Institution","Campus Partner":"","Academic Year":"","Website":"https:\/\/cst.edu\/"},"geometry":{"type":"Point","coordinates":[-117.716307,34.1077059]}},{"type":"Feature","properties":{"CommunityPartner":"Clemson University","Address":"230 Kappa Street Clemson SC","Legislative District Number":0,"Number of projects":1,"Income":43531,"County":"Pickens","Mission Area":"Educational Support","CommunityType":"Higher Education Institution","Campus Partner":["History, Department of"],"Academic Year":["2017-18"],"Website":"http:\/\/www.clemson.edu\/"},"geometry":{"type":"Point","coordinates":[-82.8367365,34.6753184]}},{"type":"Feature","properties":{"CommunityPartner":"Coalition for a Strong Nebraska","Address":"215 Centennial Mall South, Suite 200 Lincoln NE","Legislative District Number":28,"Number of projects":1,"Income":53730,"County":"Lancaster","Mission Area":"Social Justice","CommunityType":"Nonprofit","Campus Partner":["Service Learning Academy (SLA)"],"Academic Year":["2016-17"],"Website":""},"geometry":{"type":"Point","coordinates":[-96.7001142,40.8121822]}},{"type":"Feature","properties":{"CommunityPartner":"Coalition RX","Address":"6400 South, University Drive Road North Omaha NE","Legislative District Number":9,"Number of projects":0,"Income":56003,"County":"Douglas","Mission Area":"Health and Wellness","CommunityType":"Nonprofit","Campus Partner":"","Academic Year":"","Website":"http:\/\/coalitionrx.org\/"},"geometry":{"type":"Point","coordinates":[-96.0107658,41.2578876]}},{"type":"Feature","properties":{"CommunityPartner":"College of Saint Mary","Address":"7000 Mercy Rd Omaha NE","Legislative District Number":9,"Number of projects":0,"Income":56003,"County":"Douglas","Mission Area":"Educational Support","CommunityType":"Higher Education Institution","Campus Partner":"","Academic Year":"","Website":"http:\/\/www.csm.edu\/"},"geometry":{"type":"Point","coordinates":[-96.0220528,41.2399078]}},{"type":"Feature","properties":{"CommunityPartner":"Common Seed Soil Library, Omaha Public Library (OPL)","Address":"215 S 15th St Omaha NE","Legislative District Number":7,"Number of projects":0,"Income":56003,"County":"Douglas","Mission Area":"Environmental Stewardship","CommunityType":"Nonprofit","Campus Partner":"","Academic Year":"","Website":"https:\/\/omahalibrary.org\/welcome-to-the-common-soil-library\/"},"geometry":{"type":"Point","coordinates":[-95.9351094,41.2581041]}},{"type":"Feature","properties":{"CommunityPartner":"Common Sense Media: Omaha Public Schools","Address":"650 Townsend Suite 435 San Francisco CA","Legislative District Number":0,"Number of projects":0,"Income":87701,"County":"San Francisco","Mission Area":"Educational Support","CommunityType":"K-12","Campus Partner":"","Academic Year":"","Website":"https:\/\/commonsensemedia.org"},"geometry":{"type":"Point","coordinates":[-122.4033069,37.7710325]}},{"type":"Feature","properties":{"CommunityPartner":"Community Action of Nebraska","Address":"210 O Street No 100 Lincoln NE","Legislative District Number":27,"Number of projects":1,"Income":53730,"County":"Lancaster","Mission Area":"Economic Sufficiency","CommunityType":"Nonprofit","Campus Partner":["Support and Training for the Evaluation of Programs (STEPs)"],"Academic Year":["2016-17"],"Website":""},"geometry":{"type":"Point","coordinates":[-96.7183676,40.8142864]}},{"type":"Feature","properties":{"CommunityPartner":"Community Action Partnership of Lancaster and Saunders Counties","Address":"210 O St Lincoln NE","Legislative District Number":27,"Number of projects":1,"Income":53730,"County":"Lancaster","Mission Area":"Economic Sufficiency","CommunityType":"Nonprofit","Campus Partner":["Support and Training for the Evaluation of Programs (STEPs)"],"Academic Year":["2016-17"],"Website":""},"geometry":{"type":"Point","coordinates":[-96.7183676,40.8142864]}},{"type":"Feature","properties":{"CommunityPartner":"Community Action Partnership of Western Nebraska: Foster Grandparent Program in Gering","Address":"3350 10th St Gering NE","Legislative District Number":48,"Number of projects":1,"Income":46632,"County":"Scotts Bluff","Mission Area":"Economic Sufficiency","CommunityType":"Nonprofit","Campus Partner":["Volunteer Program Assessment-UNO (VPA-UNO)"],"Academic Year":["2016-17"],"Website":""},"geometry":{"type":"Point","coordinates":[-103.6602409,41.8437621]}},{"type":"Feature","properties":{"CommunityPartner":"Completely Kids","Address":"2566 St Marys Ave Omaha NE","Legislative District Number":7,"Number of projects":3,"Income":56003,"County":"Douglas","Mission Area":"Educational Support","CommunityType":"Nonprofit","Campus Partner":["Office of Civic and Social Responsibility (CSR)","Service Learning Academy (SLA)","Volunteer Program Assessment-UNO (VPA-UNO)"],"Academic Year":["2016-17"],"Website":"http:\/\/completelykids.org"},"geometry":{"type":"Point","coordinates":[-95.9496407,41.2540701]}},{"type":"Feature","properties":{"CommunityPartner":"Court Appointed Special Advocates in Douglas County","Address":"2412 St Marys Ave Omaha NE","Legislative District Number":7,"Number of projects":2,"Income":56003,"County":"Douglas","Mission Area":"Social Justice","CommunityType":"Nonprofit","Campus Partner":["Volunteer Program Assessment-UNO (VPA-UNO)"],"Academic Year":["2017-18","2016-17"],"Website":""},"geometry":{"type":"Point","coordinates":[-95.9473042,41.2540844]}},{"type":"Feature","properties":{"CommunityPartner":"Creighton University","Address":"2500 California Plaza Omaha NE","Legislative District Number":11,"Number of projects":2,"Income":56003,"County":"Douglas","Mission Area":"Educational Support","CommunityType":"Higher Education Institution","Campus Partner":["Natan and Hannah Schwalb Center for Israel and Jewish Studies (Schwalb Center)","Gerontology, Department of"],"Academic Year":["2017-18","2016-17"],"Website":"https:\/\/www.creighton.edu\/trio\/"},"geometry":{"type":"Point","coordinates":[-95.9486026,41.2655878]}},{"type":"Feature","properties":{"CommunityPartner":"Cultural Enrichment Fund","Address":"301 Market St # 5 Harrisburg PA","Legislative District Number":0,"Number of projects":0,"Income":62640,"County":"Cumberland","Mission Area":"Educational Support","CommunityType":"Nonprofit","Campus Partner":"","Academic Year":"","Website":"https:\/\/culturalenrichmentfund.org\/"},"geometry":{"type":"Point","coordinates":[-76.8803158,40.2607816]}},{"type":"Feature","properties":{"CommunityPartner":"D2 Center","Address":"1841 S 42nd St Omaha NE","Legislative District Number":9,"Number of projects":0,"Income":56003,"County":"Douglas","Mission Area":"Educational Support","CommunityType":"Nonprofit","Campus Partner":"","Academic Year":"","Website":"http:\/\/d2center.org"},"geometry":{"type":"Point","coordinates":[-95.9758577,41.2423638]}},{"type":"Feature","properties":{"CommunityPartner":"Do Space","Address":"7205 Dodge St Omaha NE","Legislative District Number":6,"Number of projects":1,"Income":56003,"County":"Douglas","Mission Area":"Educational Support","CommunityType":"Nonprofit","Campus Partner":["Volunteer Program Assessment-UNO (VPA-UNO)"],"Academic Year":["2017-18"],"Website":""},"geometry":{"type":"Point","coordinates":[-96.0244388,41.2589554]}},{"type":"Feature","properties":{"CommunityPartner":"DoD - Defense POW\/MIA Accounting Agency","Address":"1400 Defense Pentagon Washington DC","Legislative District Number":0,"Number of projects":0,"Income":108706,"County":"Arlington","Mission Area":"Social Justice","CommunityType":"Nonprofit","Campus Partner":"","Academic Year":"","Website":"http:\/\/www.defense.gov\/Resources\/Contact-DoD\/source\/nav\/"},"geometry":{"type":"Point","coordinates":[-77.0563653,38.8718372]}},{"type":"Feature","properties":{"CommunityPartner":"Douglas County Department of Health & Human Services","Address":"1111 S 41st St Omaha NE","Legislative District Number":9,"Number of projects":1,"Income":56003,"County":"Douglas","Mission Area":"Health and Wellness","CommunityType":"Government Agency","Campus Partner":["Office of Civic and Social Responsibility (CSR)"],"Academic Year":["2016-17"],"Website":"http:\/\/dhhs.ne.gov"},"geometry":{"type":"Point","coordinates":[-95.9739069,41.2484543]}},{"type":"Feature","properties":{"CommunityPartner":"Douglas County Health Department","Address":"1101 S 42nd St Omaha NE","Legislative District Number":9,"Number of projects":1,"Income":56003,"County":"Douglas","Mission Area":"Health and Wellness","CommunityType":"Government Agency","Campus Partner":["Office of Civic and Social Responsibility (CSR)"],"Academic Year":["2017-18"],"Website":"https:\/\/www.douglascountyhealth.com\/"},"geometry":{"type":"Point","coordinates":[-95.9752027,41.2484065]}},{"type":"Feature","properties":{"CommunityPartner":"Douglas County Historial Society","Address":"5730 N. 30th Street #11B Omaha NE","Legislative District Number":11,"Number of projects":1,"Income":56003,"County":"Douglas","Mission Area":"Educational Support","CommunityType":"Government Agency","Campus Partner":["Office of Civic and Social Responsibility (CSR)"],"Academic Year":["2017-18"],"Website":""},"geometry":{"type":"Point","coordinates":[-95.9595608,41.3045603]}},{"type":"Feature","properties":{"CommunityPartner":"Down Syndrome Alliance of the Midlands (DSM)","Address":"6400 South, University Drive Road North Omaha NE","Legislative District Number":9,"Number of projects":3,"Income":56003,"County":"Douglas","Mission Area":"Health and Wellness","CommunityType":"Nonprofit","Campus Partner":["Service Learning Academy (SLA)","Student Council for Exceptional Children (SCEC)"],"Academic Year":["2017-18","2016-17"],"Website":"http:\/\/www.dsamidlands.org\/"},"geometry":{"type":"Point","coordinates":[-96.0107658,41.2578876]}},{"type":"Feature","properties":{"CommunityPartner":"Dreamweaver Foundation","Address":"13321 California Street Omaha NE","Legislative District Number":4,"Number of projects":1,"Income":56003,"County":"Douglas","Mission Area":"Health and Wellness","CommunityType":"Nonprofit","Campus Partner":["Support and Training for the Evaluation of Programs (STEPs)"],"Academic Year":["2017-18"],"Website":""},"geometry":{"type":"Point","coordinates":[-96.120819,41.2639836]}},{"type":"Feature","properties":{"CommunityPartner":"Dundee Elementary","Address":"310 North 51St Street Omaha NE","Legislative District Number":8,"Number of projects":1,"Income":56003,"County":"Douglas","Mission Area":"Educational Support","CommunityType":"K-12","Campus Partner":["Office of Civic and Social Responsibility (CSR)"],"Academic Year":["2017-18"],"Website":""},"geometry":{"type":"Point","coordinates":[-95.9932477,41.2618085]}},{"type":"Feature","properties":{"CommunityPartner":"Durham Museum","Address":"801 S 10th St Omaha NE","Legislative District Number":7,"Number of projects":2,"Income":56003,"County":"Douglas","Mission Area":"Educational Support","CommunityType":"Nonprofit","Campus Partner":["History, Department of"],"Academic Year":["2017-18","2016-17"],"Website":"http:\/\/durhammuseum.org"},"geometry":{"type":"Point","coordinates":[-95.9285879,41.2514804]}},{"type":"Feature","properties":{"CommunityPartner":"Eastern Nebraska 4-H Camp","Address":"21520 W Hwy 31 Gretna NE","Legislative District Number":2,"Number of projects":1,"Income":72269,"County":"Sarpy","Mission Area":"Educational Support","CommunityType":"Nonprofit","Campus Partner":["Office of Civic and Social Responsibility (CSR)"],"Academic Year":["2017-18"],"Website":""},"geometry":{"type":"Point","coordinates":[-96.2567218,41.0268073]}},{"type":"Feature","properties":{"CommunityPartner":"Eastern Nebraska Community Action Partnership","Address":"2406 Fowler Ave Omaha NE","Legislative District Number":11,"Number of projects":1,"Income":56003,"County":"Douglas","Mission Area":"Economic Sufficiency","CommunityType":"Nonprofit","Campus Partner":["Support and Training for the Evaluation of Programs (STEPs)"],"Academic Year":["2016-17"],"Website":""},"geometry":{"type":"Point","coordinates":[-95.9476176,41.301269]}},{"type":"Feature","properties":{"CommunityPartner":"Eastern Nebraska Office on Aging: Foster Grandparent Program in Omaha","Address":"4780 S. 131st Street Omaha NE","Legislative District Number":20,"Number of projects":2,"Income":56003,"County":"Douglas","Mission Area":"Economic Sufficiency","CommunityType":"Nonprofit","Campus Partner":["Volunteer Program Assessment-UNO (VPA-UNO)"],"Academic Year":["2016-17"],"Website":""},"geometry":{"type":"Point","coordinates":[-96.1186569,41.2112668]}},{"type":"Feature","properties":{"CommunityPartner":"Eastern Nebraska Office on Aging: Ombudsman Advocate Program in Omaha","Address":"4780 S. 131st Street Omaha NE","Legislative District Number":20,"Number of projects":1,"Income":56003,"County":"Douglas","Mission Area":"Economic Sufficiency","CommunityType":"Nonprofit","Campus Partner":["Volunteer Program Assessment-UNO (VPA-UNO)"],"Academic Year":["2016-17"],"Website":""},"geometry":{"type":"Point","coordinates":[-96.1186569,41.2112668]}},{"type":"Feature","properties":{"CommunityPartner":"Eastern Nebraska Office on Aging: Senior Companions Program in Omaha","Address":"4780 S. 131st Street Omaha NE","Legislative District Number":20,"Number of projects":0,"Income":56003,"County":"Douglas","Mission Area":"Economic Sufficiency","CommunityType":"Nonprofit","Campus Partner":"","Academic Year":"","Website":""},"geometry":{"type":"Point","coordinates":[-96.1186569,41.2112668]}},{"type":"Feature","properties":{"CommunityPartner":"Eastern Nebraska Veterans Home","Address":"12505 South 40th Street Bellevue NE","Legislative District Number":3,"Number of projects":3,"Income":72269,"County":"Sarpy","Mission Area":"Health and Wellness","CommunityType":"Nonprofit","Campus Partner":["Office of Civic and Social Responsibility (CSR)","Student Veterans Organization"],"Academic Year":["2017-18"],"Website":"https:\/\/veterans.nebraska.gov\/eastern-nebraska-veterans-home"},"geometry":{"type":"Point","coordinates":[-95.9734034,41.1245213]}},{"type":"Feature","properties":{"CommunityPartner":"El Museo Latino","Address":"4701 S 25th St Omaha NE","Legislative District Number":7,"Number of projects":0,"Income":56003,"County":"Douglas","Mission Area":"International Service","CommunityType":"Nonprofit","Campus Partner":"","Academic Year":"","Website":"http:\/\/www.elmuseolatino.org"},"geometry":{"type":"Point","coordinates":[-95.9480305,41.211715]}},{"type":"Feature","properties":{"CommunityPartner":"Environmental Finance Center","Address":"250 E. Franklin Street Chapel Hill NC","Legislative District Number":0,"Number of projects":0,"Income":61130,"County":"Orange","Mission Area":"Educational Support","CommunityType":"Nonprofit","Campus Partner":"","Academic Year":"","Website":"https:\/\/efc.sog.unc.edu\/"},"geometry":{"type":"Point","coordinates":[-79.0505178,35.9138854]}},{"type":"Feature","properties":{"CommunityPartner":"Environmental Protection Agency (EPA Region 7)","Address":"11201 Renner Blvd. Lenexa KA","Legislative District Number":0,"Number of projects":1,"Income":78186,"County":"Johnson","Mission Area":"Environmental Stewardship","CommunityType":"Nonprofit","Campus Partner":["Sustainability, Office of"],"Academic Year":["2016-17"],"Website":"https:\/\/www.epa.gov\/aboutepa\/epa-region-7-midwest"},"geometry":{"type":"Point","coordinates":[-94.777329,38.9250721]}},{"type":"Feature","properties":{"CommunityPartner":"Film Streams","Address":"1640 Mike Fahey St Omaha NE","Legislative District Number":11,"Number of projects":0,"Income":56003,"County":"Douglas","Mission Area":"Educational Support","CommunityType":"Nonprofit","Campus Partner":"","Academic Year":"","Website":"http:\/\/filmstreams.org"},"geometry":{"type":"Point","coordinates":[-95.9380495,41.266178]}},{"type":"Feature","properties":{"CommunityPartner":"First Responders Foundation","Address":"809 N 96th Street Omaha NE","Legislative District Number":6,"Number of projects":1,"Income":56003,"County":"Douglas","Mission Area":"Economic Sufficiency","CommunityType":"Nonprofit","Campus Partner":["Office of Civic and Social Responsibility (CSR)"],"Academic Year":["2017-18"],"Website":"https:\/\/firstrespondersomaha.org\/"},"geometry":{"type":"Point","coordinates":[-96.0615554,41.2676284]}},{"type":"Feature","properties":{"CommunityPartner":"Fontenelle Elementary School","Address":"3905 N 52nd St Omaha NE","Legislative District Number":13,"Number of projects":0,"Income":56003,"County":"Douglas","Mission Area":"Educational Support","CommunityType":"K-12","Campus Partner":"","Academic Year":"","Website":"http:\/\/fontenelle.ops.org"},"geometry":{"type":"Point","coordinates":[-95.9928709,41.293494]}},{"type":"Feature","properties":{"CommunityPartner":"Fontenelle Forest","Address":"1111 Bellevue Blvd Bellevue NE","Legislative District Number":45,"Number of projects":4,"Income":72269,"County":"Sarpy","Mission Area":"Environmental Stewardship","CommunityType":"Nonprofit","Campus Partner":["Engineering","Office of Civic and Social Responsibility (CSR)","Service Learning Academy (SLA)"],"Academic Year":["2017-18","2016-17"],"Website":"http:\/\/fontanelleforest.org"},"geometry":{"type":"Point","coordinates":[-95.9177367,41.1800797]}},{"type":"Feature","properties":{"CommunityPartner":"Food Bank for the Heartland","Address":"10525 J Street Omaha NE","Legislative District Number":12,"Number of projects":2,"Income":56003,"County":"Douglas","Mission Area":"Economic Sufficiency","CommunityType":"Nonprofit","Campus Partner":["Office of Civic and Social Responsibility (CSR)"],"Academic Year":["2017-18","2016-17"],"Website":""},"geometry":{"type":"Point","coordinates":[-96.0780051,41.2137282]}},{"type":"Feature","properties":{"CommunityPartner":"Foster Grandparents Program","Address":"4223 Center St Omaha NE","Legislative District Number":9,"Number of projects":1,"Income":56003,"County":"Douglas","Mission Area":"Economic Sufficiency","CommunityType":"Nonprofit","Campus Partner":["Psychology, Department of"],"Academic Year":["2016-17"],"Website":"http:\/\/enoa.org"},"geometry":{"type":"Point","coordinates":[-95.9766236,41.2412138]}},{"type":"Feature","properties":{"CommunityPartner":"Frank Stoysich Meats","Address":"5170 Q St Omaha NE","Legislative District Number":5,"Number of projects":0,"Income":56003,"County":"Douglas","Mission Area":"Health and Wellness","CommunityType":"Nonprofit","Campus Partner":"","Academic Year":"","Website":"http:\/\/frankstoysichmeats.com"},"geometry":{"type":"Point","coordinates":[-95.9957042,41.2055703]}},{"type":"Feature","properties":{"CommunityPartner":"George Washington University","Address":"2121 Eye Street, NW Washington DC","Legislative District Number":0,"Number of projects":1,"Income":72935,"County":"District of Columbia","Mission Area":"Educational Support","CommunityType":"Higher Education Institution","Campus Partner":["Natan and Hannah Schwalb Center for Israel and Jewish Studies (Schwalb Center)"],"Academic Year":["2017-18"],"Website":"https:\/\/www.gwu.edu\/"},"geometry":{"type":"Point","coordinates":[-77.0476606,38.9009637]}},{"type":"Feature","properties":{"CommunityPartner":"Girl Scouts Spirit of Nebraska","Address":"2121 S 44th St Omaha NE","Legislative District Number":9,"Number of projects":5,"Income":56003,"County":"Douglas","Mission Area":"Educational Support","CommunityType":"Nonprofit","Campus Partner":["Office of Civic and Social Responsibility (CSR)","Service Learning Academy (SLA)","Volunteer Program Assessment-UNO (VPA-UNO)"],"Academic Year":["2017-18","2016-17"],"Website":"http:\/\/www.girlscoutsnebraska.org\/"},"geometry":{"type":"Point","coordinates":[-95.9778463,41.239197]}},{"type":"Feature","properties":{"CommunityPartner":"Girls Inc","Address":"2811 N 45th Street Omaha NE","Legislative District Number":11,"Number of projects":4,"Income":56003,"County":"Douglas","Mission Area":"Educational Support","CommunityType":"Nonprofit","Campus Partner":["Support and Training for the Evaluation of Programs (STEPs)","Office of Civic and Social Responsibility (CSR)"],"Academic Year":["2017-18"],"Website":""},"geometry":{"type":"Point","coordinates":[-95.9800613,41.2843904]}},{"type":"Feature","properties":{"CommunityPartner":"Gotta Be Me, Inc","Address":"5108 Pine Street Omaha NE","Legislative District Number":9,"Number of projects":0,"Income":56003,"County":"Douglas","Mission Area":"Health and Wellness","CommunityType":"Nonprofit","Campus Partner":"","Academic Year":"","Website":""},"geometry":{"type":"Point","coordinates":[-95.9927184,41.24429]}},{"type":"Feature","properties":{"CommunityPartner":"Greater Birmingham Humane Society","Address":"300 Snow Dr Birmingham AL","Legislative District Number":0,"Number of projects":1,"Income":47220,"County":"Jefferson","Mission Area":"Environmental Stewardship","CommunityType":"Nonprofit","Campus Partner":["Volunteer Program Assessment-UNO (VPA-UNO)"],"Academic Year":["2016-17"],"Website":""},"geometry":{"type":"Point","coordinates":[-86.8373147,33.4429285]}},{"type":"Feature","properties":{"CommunityPartner":"Greater Omaha Attendance and Learning Services","Address":"3215 Cuming St Omaha NE","Legislative District Number":9,"Number of projects":1,"Income":56003,"County":"Douglas","Mission Area":"Educational Support","CommunityType":"Nonprofit","Campus Partner":["Support and Training for the Evaluation of Programs (STEPs)"],"Academic Year":["2016-17"],"Website":""},"geometry":{"type":"Point","coordinates":[-95.9604031,41.2674656]}},{"type":"Feature","properties":{"CommunityPartner":"Greater Omaha Chamber of Commerce","Address":"1301 Harney St Omaha NE","Legislative District Number":7,"Number of projects":1,"Income":56003,"County":"Douglas","Mission Area":"Economic Sufficiency","CommunityType":"Nonprofit","Campus Partner":["Support and Training for the Evaluation of Programs (STEPs)"],"Academic Year":["2016-17"],"Website":""},"geometry":{"type":"Point","coordinates":[-95.9336234,41.2561477]}},{"type":"Feature","properties":{"CommunityPartner":"Green Bellevue","Address":"4522 Borman Street Bellevue NE","Legislative District Number":3,"Number of projects":0,"Income":72269,"County":"Sarpy","Mission Area":"Environmental Stewardship","CommunityType":"Nonprofit","Campus Partner":"","Academic Year":"","Website":"https:\/\/sites.google.com\/a\/greenbellevue.org\/green-bellevue\/"},"geometry":{"type":"Point","coordinates":[-95.9835262,41.1878235]}},{"type":"Feature","properties":{"CommunityPartner":"Greenwood Humane Society","Address":"239 Wilbanks Cir Greenwood SC","Legislative District Number":0,"Number of projects":1,"Income":37631,"County":"Greenwood","Mission Area":"Environmental Stewardship","CommunityType":"Nonprofit","Campus Partner":["Volunteer Program Assessment-UNO (VPA-UNO)"],"Academic Year":["2016-17"],"Website":""},"geometry":{"type":"Point","coordinates":[-82.141122,34.252724]}},{"type":"Feature","properties":{"CommunityPartner":"Grief's Journey","Address":"7811 Farnam Dr Omaha NE","Legislative District Number":6,"Number of projects":5,"Income":56003,"County":"Douglas","Mission Area":"Health and Wellness","CommunityType":"Nonprofit","Campus Partner":["Office of Civic and Social Responsibility (CSR)","Service Learning Academy (SLA)","Gerontology, Department of"],"Academic Year":["2017-18","2016-17"],"Website":"http:\/\/griefsjourney.org"},"geometry":{"type":"Point","coordinates":[-96.0348137,41.2572031]}},{"type":"Feature","properties":{"CommunityPartner":"Habitat for Humanity: Council Bluffs","Address":"1228 South Main Street Council Bluffs IA","Legislative District Number":0,"Number of projects":4,"Income":53260,"County":"Pottawattamie","Mission Area":"Economic Sufficiency","CommunityType":"Nonprofit","Campus Partner":["Fraternity & Sorority Life","Office of Civic and Social Responsibility (CSR)"],"Academic Year":["2017-18","2016-17"],"Website":""},"geometry":{"type":"Point","coordinates":[-95.852054,41.249731]}},{"type":"Feature","properties":{"CommunityPartner":"Habitat for Humanity: Omaha","Address":"3931 N. 21st Street Omaha NE","Legislative District Number":11,"Number of projects":6,"Income":56003,"County":"Douglas","Mission Area":"Economic Sufficiency","CommunityType":"Nonprofit","Campus Partner":["Men's Tennis Team","Office of Civic and Social Responsibility (CSR)","Women's Tennis Team"],"Academic Year":["2017-18","2016-17"],"Website":""},"geometry":{"type":"Point","coordinates":[-95.9431383,41.2956987]}},{"type":"Feature","properties":{"CommunityPartner":"Habitat Omaha ReStore","Address":"1701 N 24th St Omaha NE","Legislative District Number":11,"Number of projects":0,"Income":56003,"County":"Douglas","Mission Area":"Economic Sufficiency","CommunityType":"Nonprofit","Campus Partner":"","Academic Year":"","Website":"https:\/\/www.habitat.org\/"},"geometry":{"type":"Point","coordinates":[-95.9461836,41.2747423]}},{"type":"Feature","properties":{"CommunityPartner":"Harvey Oakes Elementary","Address":"15228 Shirley St Omaha NE","Legislative District Number":4,"Number of projects":0,"Income":56003,"County":"Douglas","Mission Area":"Educational Support","CommunityType":"Nonprofit","Campus Partner":"","Academic Year":"","Website":"http:\/\/harveyoaks.mps.org"},"geometry":{"type":"Point","coordinates":[-96.1519486,41.2405492]}},{"type":"Feature","properties":{"CommunityPartner":"Heart Ministry Center","Address":"2222 Binney Street Omaha NE","Legislative District Number":11,"Number of projects":3,"Income":56003,"County":"Douglas","Mission Area":"Economic Sufficiency","CommunityType":"Nonprofit","Campus Partner":["Office of Civic and Social Responsibility (CSR)"],"Academic Year":["2017-18","2016-17"],"Website":""},"geometry":{"type":"Point","coordinates":[-95.946627,41.2863273]}},{"type":"Feature","properties":{"CommunityPartner":"Heartland B-cycle","Address":"1085 Jackson Street Omaha NE","Legislative District Number":7,"Number of projects":0,"Income":56003,"County":"Douglas","Mission Area":"Environmental Stewardship","CommunityType":"Nonprofit","Campus Partner":"","Academic Year":"","Website":"https:\/\/heartland.bcycle.com\/"},"geometry":{"type":"Point","coordinates":[-95.9303282,41.2542412]}},{"type":"Feature","properties":{"CommunityPartner":"Heartland Equine Therapeutic Riding Academy","Address":"10130 S. 222nd Street Gretna NE","Legislative District Number":49,"Number of projects":1,"Income":72269,"County":"Sarpy","Mission Area":"Health and Wellness","CommunityType":"Nonprofit","Campus Partner":["Office of Civic and Social Responsibility (CSR)"],"Academic Year":["2017-18"],"Website":""},"geometry":{"type":"Point","coordinates":[-96.2639857,41.1600404]}},{"type":"Feature","properties":{"CommunityPartner":"Heartland Family Services","Address":"2101 S 42nd St Omaha NE","Legislative District Number":9,"Number of projects":7,"Income":56003,"County":"Douglas","Mission Area":"Economic Sufficiency","CommunityType":"Nonprofit","Campus Partner":["Support and Training for the Evaluation of Programs (STEPs)","Office of Civic and Social Responsibility (CSR)","Service Learning Academy (SLA)","Volunteer Program Assessment-UNO (VPA-UNO)"],"Academic Year":["2017-18","2016-17"],"Website":"http:\/\/heartlandfamilyservices.org"},"geometry":{"type":"Point","coordinates":[-95.9754994,41.2396388]}},{"type":"Feature","properties":{"CommunityPartner":"Heartland Hope Mission","Address":"20210 U St Omaha NE","Legislative District Number":39,"Number of projects":1,"Income":56003,"County":"Douglas","Mission Area":"Economic Sufficiency","CommunityType":"Nonprofit","Campus Partner":["Service Learning Academy (SLA)"],"Academic Year":["2016-17"],"Website":"http:\/\/heartlandhopemission.org"},"geometry":{"type":"Point","coordinates":[-96.212641,41.2018516]}},{"type":"Feature","properties":{"CommunityPartner":"Heartland Workers Center","Address":"49235 24th St Omaha NE","Legislative District Number":7,"Number of projects":0,"Income":56003,"County":"Douglas","Mission Area":"Social Justice","CommunityType":"Nonprofit","Campus Partner":"","Academic Year":"","Website":"http:\/\/heartlandworkercenter.org"},"geometry":{"type":"Point","coordinates":[-95.9470584,41.2294217]}},{"type":"Feature","properties":{"CommunityPartner":"Henry Doorly Zoo & Aquarium","Address":"3701 S 10th Street Omaha NE","Legislative District Number":7,"Number of projects":2,"Income":56003,"County":"Douglas","Mission Area":"Educational Support","CommunityType":"Nonprofit","Campus Partner":["Office of Civic and Social Responsibility (CSR)","Service Learning Academy (SLA)"],"Academic Year":["2017-18","2016-17"],"Website":""},"geometry":{"type":"Point","coordinates":[-95.9272367,41.2245702]}},{"type":"Feature","properties":{"CommunityPartner":"Heron Haven","Address":"11809 Old Maple Rd Omaha NE","Legislative District Number":18,"Number of projects":2,"Income":56003,"County":"Douglas","Mission Area":"Environmental Stewardship","CommunityType":"Nonprofit","Campus Partner":["Service Learning Academy (SLA)","Chemistry, Department of"],"Academic Year":["2016-17"],"Website":"http:\/\/heronhaven.org"},"geometry":{"type":"Point","coordinates":[-96.0970904,41.2926688]}},{"type":"Feature","properties":{"CommunityPartner":"Hope Center for Kids","Address":"2200 North 20th Street Omaha NE","Legislative District Number":11,"Number of projects":3,"Income":56003,"County":"Douglas","Mission Area":"Educational Support","CommunityType":"Nonprofit","Campus Partner":["Support and Training for the Evaluation of Programs (STEPs)","Office of Civic and Social Responsibility (CSR)"],"Academic Year":["2016-17"],"Website":""},"geometry":{"type":"Point","coordinates":[-95.9427048,41.2796023]}},{"type":"Feature","properties":{"CommunityPartner":"Humane Society of Pinellas","Address":"3040 State Road 590 Clearwater FL","Legislative District Number":0,"Number of projects":1,"Income":47090,"County":"Pinellas","Mission Area":"Environmental Stewardship","CommunityType":"Nonprofit","Campus Partner":["Volunteer Program Assessment-UNO (VPA-UNO)"],"Academic Year":["2016-17"],"Website":""},"geometry":{"type":"Point","coordinates":[-82.7112254,27.9829599]}}]}